"id","type","lon","lat","place","name","name:en","name:zh","wikipedia","wikidata"
,node,-3.1931,55.9484,,Edinburgh,,,,
,node,-4.2436,55.8567,,Glasgow,,,,
,node,-1.4702,53.3807,,Sheffield,,,,
,node,-2.5974,51.4535,,Bristol,,,,
,node,-2.0914,57.1452,,Aberdeen,,,,
,node,-0.1374,50.822,,Brighton,,,,
,node,-2.9735,56.4594,,Dundee,,,,
,node,-0.3395,53.7436,,Kingston upon Hull,,,,
,node,-2.3223,53.4454,,Stretford,,,,
,node,-1.9823,52.5848,,Walsall,,,,
,node,-2.3597,51.3814,,Bath,,,,
,node,-1.9923,52.5187,,West Bromwich,,,,
,node,-2.2281,53.5242,,Blackley,,,,
,node,-2.7273,53.4535,,St. Helens,,,,
,node,-1.65,54.6667,,County Durham,,,,
,node,-2.2216,52.1918,,Worcester,,,,
,node,-1.21,52.77,,Charnwood,,,,
,node,-2.799,54.0484,,Lancaster,,,,
,node,-3.4591,56.0714,,Dunfermline,,,,
,node,-4.4985,55.6101,,Kilmarnock,,,,
,node,-1.6,55.01,,North Tyneside,,,,
,node,-2.2639,53.3796,,Wythenshawe,,,,
,node,-2.4798,53.7497,,Blackburn,,,,
,node,-4.6327,55.4594,,Ayr,,,,
,node,-1.4213,55.0157,,Tynemouth,,,,
,node,-2.0989,53.4888,,Ashton-under-Lyne,,,,
,node,-1.0862,51.2628,,Basingstoke,,,,
,node,-3.5479,50.4523,,Torbay,,,,
,node,-0.763,51.2494,,Aldershot,,,,
,node,-1.4812,54.9819,,Jarrow,,,,
,node,-4.2161,55.8278,,Rutherglen,,,,
,node,-3.0167,53.4667,,Bootle,,,,
,node,-2.9362,54.8948,,Carlisle,,,,
,node,-1.4684,52.5246,,Nuneaton,,,,
,node,-3.0192,53.3944,,Birkenhead,,,,
,node,-1.2003,54.6957,,Hartlepool,,,,
,node,-0.2059,51.2374,,Reigate,,,,
,node,-2.8961,53.3523,,Garston,,,,
,node,-3.1608,56.1099,,Kirkcaldy,,,,
,node,-4.0283,55.8553,,Coatbridge,,,,
,node,-2.694,53.6987,,South Ribble,,,,
,node,-1.6364,53.7166,,Batley,,,,
,node,-0.1746,50.8287,,Hove,,,,
,node,-0.3654,51.3694,,Esher,,,,
,node,-0.2678,51.3326,,Epsom,,,,
,node,-0.75,51.63,,Wycombe,,,,
,node,-3.516,55.8836,,Livingston,,,,
,node,-4.2257,57.479,,Inverness,,,,
,node,-4.4249,55.8482,,Paisley,,,,
,node,-2.1153,53.4548,,Denton,,,,
,node,-2.85,53.41,,Knowsley,,,,
,node,-1.4828,53.5528,,Barnsley,,,,
,node,-3.0394,53.4241,,Wallasey,,,,
,node,-3.9824,55.7915,,Motherwell,,,,
,node,-2.3525,53.384,,Altrincham,,,,
,node,-1.4322,54.9987,,South Shields,,,,
,node,-2.2122,53.3936,,Cheadle,,,,
,node,-0.5018,51.759,,Dacorum,,,,
,node,-1.12,53.31,,Bassetlaw,,,,
,node,-1.27,52.9,,Erewash,,,,
,node,-0.3333,51.75,,St. Albans,,,,
,node,-1.6665,53.7958,,Pudsey,,,,
,node,-2.4562,50.6191,,Weymouth,,,,
,node,0.52,51.61,,Basildon,,,,
,node,-1.9903,52.4811,,Warley,,,,
,node,-2.8436,53.5629,,West Lancashire,,,,
,node,-4.75,55.9,,Inverclyde,,,,
,node,0.8723,51.1486,,Ashford,,,,
,node,0.3965,52.7549,,King's Lynn,,,,
,node,-1.3187,54.5685,,Stockton,,,,
,node,-1.4643,54.8403,,Houghton,,,,
,node,-2.0515,52.4492,,Halesowen,,,,
,node,-4.651,55.6142,,Irvine,,,,
,node,-0.19,51.7,,Hertsmere,,,,
,node,0.7589,51.3414,,Swale,,,,
,node,-2.1474,52.4578,,Stourbridge,,,,
,node,1.75,52.48,,Waveney,,,,
,node,-0.75,51.34,,Surrey Heath,,,,
,node,-2.1895,57.2054,,Dyce,,,,
,node,-3.78,55.67,,Clydesdale,,,,
,node,-0.2069,51.8017,,Welwyn Hatfield,,,,
,node,-1.26,51.76,,Oxford,,,,
,node,-0.33,51.3,,Mole Valley,,,,
,node,-3.93,56.11,,Stirling,,,,
,node,-1.2426,52.9046,,Broxtowe,,,,
,node,-1.9171,52.6055,,Aldridge-Brownhills,,,,
,node,-1.0688,54.6179,,Redcar,,,,
,node,-0.2994,51.6436,,Elstree,,,,
,node,-1.081,52.5983,,Oadby,,,,
,node,-1.91,53.26,,High Peak,,,,
,node,-3.2565,54.9884,,Annandale,,,,
,node,0.7,51.55,,Southend,,,,
,node,-1.13,52.94,,Rushcliffe,,,,
,node,-3.9881,55.9477,,Cumbernauld,,,,
,node,1.15,51.79,,Tendring,,,,
,node,-3.4784,56.3879,,Perth City,,,,
,node,-0.08,53.57,,Great Grimsby,,,,
,node,-3.3135,57.6488,,Elgin City,,,,
,node,-2.71,53.79,,Preston,,,,
,node,-3.94,56.12,,Castle,,,,
,node,0.5978,51.5457,,Castle Point,,,,
,node,-4.3889,55.8776,,Renfrew,,,,
,node,-3.02,53.84,,Wyre,,,,
,node,-3.6402,55.8985,,Bathgate,,,,
,node,-2.1141,57.1683,,Tillydrone,,,,
,node,-2.5171,53.496,,Leigh,,,,
,node,-3.4314,56.3952,,Perth City Centre,,,,
,node,-3.9664,55.8697,,Airdrie,,,,
,node,-2.799,56.3387,,St. Andrews,,,,
,node,1.38,51.39,,Thanet,,,,
,node,-4.14,55.87,,North,,,,
,node,-3.9627,56.185,,Dunblane,,,,
,node,-1.79,51.56,,Central,,,,
,node,-4.03,55.78,,Hamilton North and,,,,
,node,-4.6108,55.4987,,Prestwick,,,,
,node,0.47,50.84,,Rother,,,,
,node,0.54,51.4,,River,,,,
,node,-4.17,55.78,,East Kilbride,,,,
,node,-0.64,52.91,,South Kesteven,,,,
,node,0.2736,51.189,,Tonbridge,,,,
,node,-3.0539,55.9421,,Musselburgh,,,,
,node,-4.7797,55.6393,,Saltcoats,,,,
,node,-4.21,57.47,,Inverness Millburn,,,,
,node,-0.47,51.64,,Three Rivers,,,,
,node,-4.1833,55.7632,,East Kilbride Central,,,,
,node,-2.5862,56.5579,,Arbroath,,,,
,node,-1.3729,52.5411,,Hinckley,,,,
,node,-4.6843,55.3536,,Maybole,,,,
,node,-4.464,55.9036,,Erskine,,,,
,node,-4.3116,51.8591,,Carmarthen,,,,
,node,-4.1537,55.8199,,Cambuslang,,,,
,node,-0.3869,50.8319,,Worthing,,,,
,node,-4.41,55.85,,Paisley East,,,,
,node,-1.5527,53.7199,,Ardsley,,,,
,node,-3.3955,56.0323,,Inverkeithing,,,,
,node,-2.0308,52.6904,,Cannock Chase,,,,
,node,1.4374,51.3584,,Broadstairs,,,,
,node,-1.56,52.77,,South Derbyshire,,,,
,node,-1.7803,53.7027,,Brighouse,,,,
,node,-3.83,57.19,,Badenoch,,,,
,node,-2.1038,57.1852,,Bridge of Don,,,,
,node,-4.42,55.85,,Renfrew South,,,,
,node,-5.112,56.817,,Fort William,,,,
,node,-3.1732,56.1951,,Glenrothes Central,,,,
,node,-3.4848,55.9339,,Broxburn,,,,
,node,-0.23,50.84,,Adur,,,,
,node,-2.63,53.54,,Douglas,,,,
,node,-3.8879,56.003,,Bonnybridge,,,,
,node,-1.3626,53.7259,,Castleford Central,,,,
,node,0.5049,51.3891,,Rochester,,,,
,node,-3.6849,55.8668,,Whitburn,,,,
,node,-4.4,55.9,,Clydebank Waterfront,,,,
,node,-4.6592,55.5431,,Troon,,,,
,node,-1.8237,53.6623,,Lindley,,,,
,node,-2.3984,53.5242,,Walkden,,,,
,node,-1.3077,53.6916,,Pontefract,,,,
,node,-4.2264,55.9044,,Bishopbriggs,,,,
,node,-4.2669,55.4532,,Cumnock,,,,
,node,-4.0283,55.8553,,Coatbridge,,,,
,node,-3.3472,56.1106,,Cowdenbeath,,,,
,node,-2.104,53.5819,,Shaw,,,,
,node,-1.778,53.8322,,Shipley,,,,
,node,-3.4214,56.2047,,Kinross-shire,,,,
,node,-3.9092,56.0211,,Denny,,,,
,node,-3.4637,55.8919,,East Livingston,,,,
,node,-4.6977,55.6532,,Kilwinning,,,,
,node,-2.3748,57.2834,,Inverurie,,,,
,node,0.71,51.54,,Milton,,,,
,node,-3.18,56.19,,Glenrothes,,,,
,node,-3.4195,56.0397,,Rosyth,,,,
,node,-3.7232,56.0161,,Grangemouth,,,,
,node,-1.7831,57.5069,,Peterhead,,,,
,node,-1.4895,50.9196,,Totton,,,,
,node,-2.96,53.74,,Fylde,,,,
,node,-1.37,52.73,,North West Leicestershire,,,,
,node,-0.46,51.36,,Elmbridge,,,,
,node,-3.6041,55.9771,,Linlithgow,,,,
,node,-1.4782,53.7494,,Rothwell,,,,
,node,-4.38,55.6,,Irvine Valley,,,,
,node,-4.0333,55.7667,,Hamilton,,,,
,node,-4.1349,57.4891,,Culloden,,,,
,node,-2.16,53.61,,Milkstone,,,,
,node,-1.88,53.62,,Colne Valley,,,,
,node,-3.8,56.03,,Carse,,,,
,node,-3.0714,55.8943,,Dalkeith,,,,
,node,-3.61,55.07,,Nith,,,,
,node,-3.72,55.99,,Lower Braes,,,,
,node,-2.0563,53.484,,Stalybridge,,,,
,node,-3.8039,51.6628,,Neath,,,,
,node,-4.58,56,,Lomond,,,,
,node,-4.5697,55.9441,,Dumbarton,,,,
,node,-4.59,55.52,,Kyle,,,,
,node,-1.852,53.6405,,Golcar,,,,
,node,-2.4868,52.6747,,Lawley,,,,
,node,-0.8869,52.7659,,Melton,,,,
,node,-3.2331,56.0594,,Burntisland,,,,
,node,-0.98,51.42,,Whitley,,,,
,node,-1.5245,53.6986,,Wrenthorpe,,,,
,node,-4.0907,55.7921,,Blantyre,,,,
,node,-1.03,50.88,,Havant,,,,
,node,0.14,52.18,,Cambridge,,,,
,node,-1.382,50.9411,,Swaythling,,,,
,node,-1.8377,53.6858,,Elland,,,,
,node,-3.06,56.46,,Carse of Gowrie,,,,
,node,-2.0696,57.3635,,Ellon,,,,
,node,1.13,52.07,,Ipswich,,,,
,node,-2.8885,56.6445,,Forfar,,,,
,node,-3.15,56.2,,Glenrothes North,,,,
,node,-3.3095,56.1293,,Lochgelly,,,,
,node,-2.0693,53.393,,Marple,,,,
,node,-4.8115,55.6472,,Ardrossan,,,,
,node,-3.48,50.71,,Exeter,,,,
,node,-3.37,51.74,,Town,,,,
,node,1.2388,51.8509,,Frinton,,,,
,node,-2.9804,55.9594,,Preston,,,,
,node,0.95,51.88,,Colchester,,,,
,node,-4.2955,55.7994,,Giffnock,,,,
,node,-1.4968,52.9447,,Allestree,,,,
,node,-1.8089,53.6379,,Crosland Moor,,,,
,node,-2.9,53.2,,Garden Quarter,,,,
,node,-3.0097,56.3193,,Cupar,,,,
,node,-3.59,56.06,,West Fife,,,,
,node,-4.0027,55.8195,,Mossend,,,,
,node,-3.75,56.28,,Strathallan,,,,
,node,-2.7229,56.0582,,North Berwick Coastal,,,,
,node,-2.74,53.37,,Kingsway,,,,
,node,-2.3954,53.5055,,Worsley,,,,
,node,-3.919,56.0907,,Bannockburn,,,,
,node,-4.3317,55.9188,,Bearsden,,,,
,node,-3.5173,56.4173,,Almond,,,,
,node,-3.0328,56.1702,,Buckhaven,,,,
,node,-1.1099,53.9381,,Dringhouses,,,,
,node,-4.4097,55.9153,,Clydebank,,,,
,node,-3.1345,53.2493,,Flint,,,,
,node,-1.1445,53.5509,,Bentley,,,,
,node,-2.1785,53.5944,,Castleton,,,,
,node,-2.8745,53.2011,,Hoole,,,,
,node,-0.15,52.79,,South Holland,,,,
,node,-1.3377,53.4599,,Rawmarsh,,,,
,node,-4.29,55.47,,Ballochmyle,,,,
,node,-2.4676,56.7125,,Montrose,,,,
,node,-3.0998,55.8735,,Bonnyrigg,,,,
,node,-0.92,52.48,,Harborough,,,,
,node,-5.4735,56.4157,,Oban,,,,
,node,-2.6759,53.5352,,Pemberton,,,,
,node,-3.8738,57.5848,,Nairn,,,,
,node,-2.14,57.06,,North Kincardine,,,,
,node,-1.6421,52.8209,,Horninglow,,,,
,node,-2.9969,56.1954,,Leven,,,,
,node,-4.74,55.94,,Inverclyde East,,,,
,node,-3.5167,53.312,,Kinmel Bay,,,,
,node,-2.11,53.42,,Bredbury,,,,
,node,-1.1884,53.5734,,Adwick le Street,,,,
,node,-4.0696,55.8018,,Bothwell,,,,
,node,-2.9775,53.3334,,Bromborough,,,,
,node,-2.2864,57.1544,,Westhill,,,,
,node,-2.8272,56.4832,,Monifieth,,,,
,node,-4.5495,55.8677,,Houston,,,,
,node,-4.5064,55.9097,,Bishopton,,,,
,node,-2.8072,55.6163,,Galashiels,,,,
,node,-1.7892,53.692,,Rastrick,,,,
,node,-3.62,55.07,,North West Dumfries,,,,
,node,-2.7122,53.5331,,Orrell,,,,
,node,-2.4658,53.5816,,Heaton,,,,
,node,-2.9257,53.2081,,Blacon,,,,
,node,-3.3,57.71,,Heldon,,,,
,node,-3.9224,55.7732,,Wishaw,,,,
,node,-0.24,52.56,,Fletton,,,,
,node,-0.9992,51.4662,,Battle,,,,
,node,-4.0602,50.3907,,Plympton St. Mary,,,,
,node,-4.1508,55.9253,,Lenzie,,,,
,node,-4.4,55.32,,Doon Valley,,,,
,node,-4.3894,55.8012,,Barrhead,,,,
,node,-3.0167,53.35,,Bebington,,,,
,node,-4.55,55.95,,Leven,,,,
,node,-2.73,53.34,,Mersey,,,,
,node,-5.1013,56.8381,,Caol,,,,
,node,-3.2208,51.5745,,Caerphilly,,,,
,node,-1.5542,53.6612,,Horbury,,,,
,node,-0.61,51.48,,Castle Without,,,,
,node,-4.4183,56.2334,,Trossachs,,,,
,node,-2.35,53.48,,Barton,,,,
,node,-2.439,53.4232,,Cadishead,,,,
,node,-2.96,55.94,,Fa'side,,,,
,node,-1.5403,53.3263,,Dore,,,,
,node,-4.87,55.79,,North Coast,,,,
,node,-2.1,53.54,,St. Mary's,,,,
,node,-1.3575,53.0146,,Heanor,,,,
,node,-2.1178,53.3768,,Hazel Grove,,,,
,node,-1.4057,52.9205,,Spondon,,,,
,node,-0.8119,52.0609,,Wolverton,,,,
,node,-2.5157,56.0028,,Dunbar,,,,
,node,-3.01,53.34,,Clatterbridge,,,,
,node,-2.44,57.24,,West Garioch,,,,
,node,0.3066,51.4437,,Swanscombe,,,,
,node,-3.9538,55.9596,,Abronhill,,,,
,node,0.709886,51.545256,,Victoria,,,,
,node,-4.21,57.46,,Inverness Ness-Side,,,,
,node,-2.0794,53.4513,,Hyde Godley,,,,
,node,-1.79,51.57,,Rodbourne Cheney,,,,
,node,-1.4745,53.7132,,Stanley,,,,
,node,-4.03,55.82,,Bellshill,,,,
,node,-1.5432,53.365,,Fulwood,,,,
,node,-0.65,53.59,,Town,,,,
,node,-1.4052,50.9369,,Bassett,,,,
,node,-2.7113,56.5022,,Carnoustie,,,,
,node,-3.7012,55.8278,,Fauldhouse,,,,
,node,-2.54,53.58,,Horwich,,,,
,node,-1.8122,53.7259,,Hipperholme,,,,
,node,-4.5,55.84,,Johnstone North,,,,
,node,-4.516,55.8291,,Johnstone South,,,,
,node,-2.482,53.617,,Smithills,,,,
,node,-0.2727,52.5385,,Hampton Hargate,,,,
,node,-2.5952,53.5087,,Abram,,,,
,node,-2.6519,53.5002,,Bryn,,,,
,node,-0.67,53.57,,Kingsway with Lincoln Gardens,,,,
,node,-3.87,56.62,,Highland,,,,
,node,-2.1183,53.3963,,Offerton,,,,
,node,-4.4312,55.7809,,Neilston,,,,
,node,-3.39,56.12,,The Lochs,,,,
,node,-4.18,57.69,,Cromarty Firth,,,,
,node,-3.607,56.0169,,Bo'ness,,,,
,node,-1.3458,53.5029,,Wath,,,,
,node,-2.18,53.62,,Spotland,,,,
,node,-2.0093,57.6928,,Fraserburgh,,,,
,node,-4.0705,55.9733,,Kilsyth,,,,
,node,-2.74,53.36,,Riverside,,,,
,node,-2.4317,52.7154,,Donnington,,,,
,node,-1.5766,53.6781,,Ossett,,,,
,node,-3.0884,58.4385,,Wick,,,,
,node,-1.469,50.9447,,Nursling,,,,
,node,-3.1807,53.3905,,Hoylake,,,,
,node,-2.21,53.58,,Hopwood Hall,,,,
,node,-3.97,55.81,,Motherwell,,,,
,node,-2.448,53.4954,,Astley Mosley Common,,,,
,node,-2.4224,53.4488,,Irlam,,,,
,node,-4.51,55.68,,Annick,,,,
,node,-2.86,53.19,,Boughton,,,,
,node,-3.6132,57.6099,,Forres,,,,
,node,-1.4033,50.8695,,Hythe,,,,
,node,-4.431,57.5958,,Dingwall,,,,
,node,-2.8799,53.2051,,Newton,,,,
,node,-1.3925,53.7905,,Garforth,,,,
,node,-2.09,55.87,,East Berwickshire,,,,
,node,-2.06,57.25,,Mid Formartine,,,,
,node,-1.8714,53.6878,,Greetland,,,,
,node,-4.856,55.2424,,Girvan,,,,
,node,-1.2383,53.7092,,Knottingley,,,,
,node,-2.19,53.56,,North Middleton,,,,
,node,-3.0956,57.6136,,Fochabers Lhanbryde,,,,
,node,-2.1099,53.6083,,Milnrow,,,,
,node,-4.0905,50.36,,Plymstock Radford,,,,
,node,-2.7313,53.3722,,Appleton,,,,
,node,-2.82,56.19,,East Neuk,,,,
,node,-2.89,56.36,,Tay Bridgehead,,,,
,node,0.4385,51.2874,,East Malling,,,,
,node,1.0388,51.3129,,St. Cosmus,,,,
,node,-4.48,57.33,,Aird,,,,
,node,-2.23,51.88,,Gloucester,,,,
,node,-3.12,56.28,,Howe of Fife,,,,
,node,-2.3675,53.4868,,Winton,,,,
,node,-0.72,51.52,,Oldfield,,,,
,node,-4.16,55.94,,Campsie,,,,
,node,-1.511,53.3558,,Ecclesall,,,,
,node,-3.57,56.56,,Strathtay,,,,
,node,-3.965,55.7409,,Larkhall,,,,
,node,-2.06,53.48,,Dukinfield Stalybridge,,,,
,node,-4.4833,57.5333,,Wester Ross,,,,
,node,-1.8,51.56,,Mannington,,,,
,node,-2.75,53.33,,Heath,,,,
,node,-2.9987,51.2377,,Burnham-on-Sea,,,,
,node,-2.7845,55.4247,,Hawick,,,,
,node,-0.6545,53.5642,,Ashby,,,,
,node,-1.0018,54.5853,,Saltburn,,,,
,node,-2.2156,56.9636,,Stonehaven,,,,
,node,-3.2645,51.5436,,Taffs Well,,,,
,node,-5.7408,57.2787,,Eilean a'Cheo,,,,
,node,-4.7205,55.7081,,Dalry,,,,
,node,-4.14,57.58,,Black Isle,,,,
,node,-3.2212,55.8274,,Penicuik,,,,
,node,-2.5778,53.5335,,Hindley,,,,
,node,-1.6354,54.7507,,Brandon,,,,
,node,-2.63,53.49,,Ashton,,,,
,node,-2,53.4667,,Longdendale,,,,
,node,-2.07,53.46,,Hyde Newton,,,,
,node,-2.16,53.62,,Central Rochdale,,,,
,node,-1.3155,53.5331,,Dearne,,,,
,node,-0.6976,52.0293,,Kents Hill,,,,
,node,-3.1002,53.3283,,Heswall,,,,
,node,-1.9625,50.7489,,Canford Heath,,,,
,node,-3.8315,55.8333,,Fortissat,,,,
,node,-2.1167,53.4167,,Bredbury Green,,,,
,node,-2.23,53.59,,West Heywood,,,,
,node,-2.7176,53.3272,,Grange,,,,
,node,-2.9811,51.5999,,St. Julians,,,,
,node,-0.6494,53.5849,,Frodingham,,,,
,node,-1.1469,60.1555,,Lerwick,,,,
,node,-2.22,53.59,,North Heywood,,,,
,node,-1.739,52.3933,,Knowle,,,,
,node,-2.2099,53.616,,Bamford,,,,
,node,0.385,51.6711,,Ingatestone,,,,
,node,-1.7781,51.5724,,Gorse Hill,,,,
,node,-1.7826,51.5552,,Eastcott,,,,
,node,-3.0951,53.3441,,Pensby,,,,
,node,-2.21,53.56,,West Middleton,,,,
,node,-2.4906,53.525,,Atherton,,,,
,node,-2.0958,53.6441,,Littleborough Lakeside,,,,
,node,-4.4,55.92,,Kilpatrick,,,,
,node,-3.7007,55.8992,,Armadale,,,,
,node,-1.5264,53.5429,,Dodworth,,,,
,node,-2.9531,53.3271,,Eastham,,,,
,node,-2.7926,55.9545,,Haddington,,,,
,node,-2.7,53.33,,Halton Lea,,,,
,node,-4.6862,55.7554,,Kilbirnie,,,,
,node,-2.19,57.27,,East Garioch,,,,
,node,-2.4199,53.5275,,Little Hulton,,,,
,node,-2.5782,53.4748,,Lowton,,,,
,node,-1.2837,53.4939,,Mexborough,,,,
,node,-2.48,56.83,,Mearns,,,,
,node,-3.099,53.385,,Upton,,,,
,node,0.73,51.55,,St. Luke's,,,,
,node,-4.21,55.82,,Rutherglen,,,,
,node,-2.13,53.62,,Smallbridge,,,,
,node,-2.6715,53.3306,,Norton,,,,
,node,-2.4662,53.5145,,Tyldesley,,,,
,node,-1.4327,52.9426,,Oakwood,,,,
,node,-2.6889,53.5227,,Winstanley,,,,
,node,-4.13,55.94,,Kirkintilloch,,,,
,node,-1.5427,50.7584,,Lymington,,,,
,node,-2.6667,53.5833,,Standish with Langtree,,,,
,node,-5.02,54.9,,Wigtown,,,,
,node,-2.6167,53.5333,,Ince,,,,
,node,-1.3167,53.4833,,Swinton,,,,
,node,-1.5072,53.3832,,Crookes,,,,
,node,-3.59,50.43,,Blatchcombe,,,,
,node,-3.0506,53.4899,,Blundellsands,,,,
,node,-2.6486,53.53,,Worsley Mesnes,,,,
,node,-0.6621,53.5952,,Crosby,,,,
,node,-0.25,52.55,,Hargate,,,,
,node,-3.88,55.78,,Murdostoun,,,,
,node,-3.23,56.62,,Strathmore,,,,
,node,-2.1413,53.5957,,Balderstone,,,,
,node,-3.3461,51.7112,,Troed-y-Rhiw,,,,
,node,-4.0227,51.7255,,Pontardulais,,,,
,node,-0.25,52.56,,Fletton,,,,
,node,0.2231,51.4132,,Sutton-at-Hone,,,,
,node,-3.5844,55.1034,,Lochar,,,,
,node,-3.72,55.98,,Upper Braes,,,,
,node,-4.33,55.77,,Newton Mearns,,,,
,node,0.72,51.54,,Kursaal,,,,
,node,-2.6588,56.7325,,Brechin,,,,
,node,-4.3178,55.9411,,Milngavie,,,,
,node,-2.7934,57.4404,,Huntly,,,,
,node,-2.17,53.55,,East Middleton,,,,
,node,-3.433,55.5053,,Tweeddale,,,,
,node,-2.9875,53.165,,Broughton,,,,
,node,-1.77,53.83,,Windhill,,,,
,node,-4.08,50.35,,Plymstock Dunstone,,,,
,node,-2.6436,51.5652,,Pilning,,,,
,node,-2.2,53.55,,South Middleton,,,,
,node,-2.95,53.28,,Ledsham,,,,
,node,-3.18,53.38,,West Kirby,,,,
,node,-3.0054,51.6072,,Malpas,,,,
,node,-2.09,53.55,,St. James',,,,
,node,-2.0837,52.8325,,Hopton,,,,
,node,-3.3141,52.514,,Newtown,,,,
,node,-1.17,53.55,,Roman Ridge,,,,
,node,-2.74,55.6,,Leaderdale,,,,
,node,-3.3747,51.5172,,Pont-y-Clun,,,,
,node,-4.07,55.68,,Avondale,,,,
,node,-4,55.38,,Mid,,,,
,node,0.3531,51.5125,,Orsett,,,,
,node,-0.21,52.55,,Stanground,,,,
,node,-1.77,51.56,,Walcot,,,,
,node,-2,57.52,,Central Buchan,,,,
,node,-1.7702,52.7047,,Fradley,,,,
,node,-2.4311,53.5005,,Boothstown,,,,
,node,-3.0063,56.6737,,Kirriemuir,,,,
,node,-2.08,53.45,,Hyde Werneth,,,,
,node,-3.5,58.59,,Landward Caithness,,,,
,node,-1.983,52.6923,,Heath Hayes,,,,
,node,-4.2764,53.1403,,Caernarfon,,,,
,node,-2.0721,53.5503,,Waterhead,,,,
,node,-2.905,53.2735,,Whitby,,,,
,node,-3.562,51.5479,,St. Bride's Minor,,,,
,node,0.5279,51.3789,,Chatham,,,,
,node,-3.2492,51.5851,,Penyrheol  Trecenydd,,,,
,node,-2.7294,53.3847,,Farnworth,,,,
,node,-2.89,53.18,,Handbridge Park,,,,
,node,-0.98,51.45,,Minster,,,,
,node,-3.1215,53.3752,,Greasby,,,,
,node,-4.2641,55.7806,,Busby,,,,
,node,-1.441,53.5438,,Stairfoot,,,,
,node,-0.4424,54.2925,,Newby,,,,
,node,-4.732,56.0084,,Helensburgh,,,,
,node,-1.6709,54.9959,,Blakelaw,,,,
,node,-2.16,53.63,,Healey,,,,
,node,-1.9519,53.833,,Haworth,,,,
,node,-2.5994,53.4756,,Golborne,,,,
,node,-0.05,53.57,,Sidney Sussex,,,,
,node,-4.07,50.39,,Plympton Erle,,,,
,node,-3.0785,51.58,,Graig,,,,
,node,-0.63,51.48,,Clewer,,,,
,node,-2.0578,50.7385,,Lytchett Minster,,,,
,node,-4.2675,55.7993,,Netherlee,,,,
,node,-2.5,53.56,,Westhoughton,,,,
,node,-2.5,53.52,,Atherleigh,,,,
,node,-2.92,53.27,,Sutton,,,,
,node,-2.78,55.43,,Hawick,,,,
,node,-1.7294,51.5471,,Liden,,,,
,node,-3.84,56.38,,Strathearn,,,,
,node,-3.22,57.47,,Speyside Glenlivet,,,,
,node,-4.34,56.07,,Forth,,,,
,node,-2.0588,52.3647,,Catshill,,,,
,node,-1.3369,53.0251,,Aldercar,,,,
,node,-4.2833,57.8333,,East Sutherland,,,,
,node,-0.03,53.56,,Croft Baker,,,,
,node,-1.9942,50.7598,,Broadstone,,,,
,node,-2.9643,51.5927,,Beechwood,,,,
,node,-2.5276,57.6697,,Banff,,,,
,node,-2.5529,55.4777,,Jedburgh,,,,
,node,-2.8925,53.1409,,Eaton,,,,
,node,-1.3146,53.723,,Airedale,,,,
,node,-1.2998,50.9653,,Fair Oak,,,,
,node,-2.9959,51.5968,,Shaftesbury,,,,
,node,-1.9447,53.7232,,Luddendenfoot,,,,
,node,-2.4367,52.6742,,Hollinswood,,,,
,node,-2.1295,53.649,,Wardle,,,,
,node,-1.8,52.39,,Blythe,,,,
,node,-1.4694,53.5297,,Worsbrough,,,,
,node,-4.65,55.96,,Helensburgh,,,,
,node,-2.5225,53.4519,,Culcheth,,,,
,node,-2.07,53.54,,Saddleworth,,,,
,node,-0.7788,51.3306,,Blackwater,,,,
,node,-3.1671,51.6025,,Bedwas Trethomas,,,,
,node,0.54,51.35,,Lordswood,,,,
,node,-1.78,51.55,,Old Town,,,,
,node,-4.2797,51.6879,,Pembrey,,,,
,node,-1.4033,53.521,,Wombwell,,,,
,node,0.5476,51.369,,Luton,,,,
,node,-2.5045,57.0514,,Banchory,,,,
,node,-2.436,52.6938,,St. Georges,,,,
,node,-3,55.5,,Selkirkshire,,,,
,node,-1.01,51.44,,Southcote,,,,
,node,0.53,51.35,,Princes Park,,,,
,node,-0.9878,54.5612,,Skelton,,,,
,node,-2.2144,53.6259,,Norden,,,,
,node,-1.8341,51.5676,,Shaw,,,,
,node,-1.8181,53.7814,,Clayton,,,,
,node,-1.7343,53.0173,,Ashbourne,,,,
,node,0.74,51.54,,Southchurch,,,,
,node,-1.6416,52.7951,,Anglesey,,,,
,node,-2.1873,53.9171,,Barnoldswick,,,,
,node,-0.74,51.52,,Boyn Hill,,,,
,node,-2.5851,53.5652,,Aspull New Springs Whelley,,,,
,node,-2.4634,57.5376,,Turriff,,,,
,node,-0.9082,52.2098,,East Hunsbury,,,,
,node,-4.7247,50.3523,,St. Blaise,,,,
,node,-2.5164,51.4496,,Hanham,,,,
,node,-4.9402,50.4345,,St. Columb Major,,,,
,node,-2.198,51.8334,,Upton St. Leonards,,,,
,node,-3.62,55.06,,Abbey,,,,
,node,-2.5261,53.7182,,Livesey,,,,
,node,-0.0572,50.8034,,Rottingdean,,,,
,node,-1.2659,53.3197,,Harthill with Woodall,,,,
,node,-0.02,53.55,,Haverstoe,,,,
,node,-1.0333,51.4653,,Kentwood,,,,
,node,-1.4061,53.8375,,Barwick in Elmet,,,,
,node,-1.4,53.74,,Kippax,,,,
,node,-1.2704,51.8145,,Gosford,,,,
,node,-3.5382,51.5002,,Coychurch Lower,,,,
,node,-0.8434,51.4438,,St. Nicholas,,,,
,node,-0.0701,52.22,,Cambourne,,,,
,node,-3.21,51.79,,Badminton,,,,
,node,0.7955,51.5284,,Shoeburyness,,,,
,node,-2.9508,57.5393,,Keith,,,,
,node,-0.2987,52.1971,,Wyboston,,,,
,node,-2.7792,57.0766,,Aboyne,,,,
,node,-1.5518,55.1435,,East Bedlington,,,,
,node,-1.21,54.54,,Marton,,,,
,node,-1.5575,53.8589,,Alwoodley,,,,
,node,-3.5225,58.5954,,Thurso,,,,
,node,0.77,51.54,,West Shoebury,,,,
,node,-0.62,51.47,,Park,,,,
,node,-0.4562,51.8657,,Caddington,,,,
,node,-3.3362,56.5918,,Blairgowrie,,,,
,node,-3.582,50.5012,,Kingskerswell,,,,
,node,-1.2132,54.523,,Coulby Newham,,,,
,node,-1.9281,52.7457,,Brereton,,,,
,node,-1.1197,53.119,,Rainworth,,,,
,node,-2.5188,53.2437,,Kingsmead,,,,
,node,-0.3801,51.7622,,St. Michael,,,,
,node,-5.2667,56.1,,Mid Argyll,,,,
,node,-0.2629,52.6735,,Deeping St. James,,,,
,node,-4.9145,51.6754,,Pembroke,,,,
,node,0.4869,52.3721,,Beck Row,,,,
,node,-1.3702,53.7701,,Kippax,,,,
,node,0.4167,51.4831,,East Tilbury,,,,
,node,-4.9484,50.3726,,St. Enoder,,,,
,node,-2.77,53.37,,Ditton,,,,
,node,-1.52,53.4,,Stannington,,,,
,node,0.0193,51.787,,Stanstead Abbots,,,,
,node,-2.9,53.29,,Rossmore,,,,
,node,-0.94,52.21,,Hunsbury Meadows,,,,
,node,-0.8558,51.291,,Elvetham Heath,,,,
,node,-5.2038,50.3123,,St. Agnes,,,,
,node,-0.8289,51.2629,,Church Crookham,,,,
,node,0.5331,51.57,,Bowers Gifford,,,,
,node,-2.94,53.28,,St. Paul's,,,,
,node,-0.7978,51.0894,,Bramshott,,,,
,node,-1.42,53.5,,Hoyland Milton,,,,
,node,-0.68,53.57,,Brumby,,,,
,node,-0.1646,51.2049,,Salfords,,,,
,node,-2.9077,54.8534,,St. Cuthbert Without,,,,
,node,-1.5575,54.8737,,North Lodge,,,,
,node,-3.01,53.5,,Manor,,,,
,node,-2.49,57.67,,Troup,,,,
,node,1.2128,52.0659,,Rushmere St. Andrew,,,,
,node,0.7617,51.5371,,Thorpe,,,,
,node,-1.4979,50.9791,,Romsey Extra,,,,
,node,-1.36,53.72,,Altofts,,,,
,node,-1.2068,53.3502,,North,,,,
,node,-0.1019,51.1199,,Worth,,,,
,node,-1.6276,53.7596,,Gildersome,,,,
,node,-4.05,54.84,,Dee,,,,
,node,-1.45,53.5,,Rockingham,,,,
,node,-2.5043,51.4893,,Downend,,,,
,node,0.4447,51.5871,,Noak Bridge,,,,
,node,-2.716,51.8099,,Monmouth,,,,
,node,-1.6845,54.7194,,Greater Willington,,,,
,node,-0.9275,52.1941,,Milton Malsor,,,,
,node,-0.4632,52.1566,,Brickhill,,,,
,node,-1.2999,52.8817,,Sawley,,,,
,node,-3.0012,53.292,,Willaston,,,,
,node,-4.35,57.9,,"North,",,,,
,node,0.2607,53.3408,,Mablethorpe,,,,
,node,-2.9697,57.6707,,Buckie,,,,
,node,-1.9693,50.7843,,Merley,,,,
,node,-1.2327,53.481,,Conisbrough,,,,
,node,-1.0297,53.6922,,Snaith,,,,
,node,1.3999,51.2069,,Walmer,,,,
,node,-2.9451,51.5858,,Alway,,,,
,node,-1.325,53.5914,,South Kirkby,,,,
,node,-1.6219,52.7945,,Stapenhill,,,,
,node,-3.4178,53.1854,,Denbigh,,,,
,node,0.3011,51.3977,,Longfield,,,,
,node,-1.7581,52.3747,,Dorridge,,,,
,node,-2.2792,52.7067,,Blymhill,,,,
,node,-2.1658,52.2234,,Hindlip,,,,
,node,-6.38,58.21,,Steornabhagh a Deas,,,,
,node,-3.7698,51.5629,,Margam Moors,,,,
,node,-2.5776,53.6112,,Anderton,,,,
,node,-0.1615,50.9947,,Ansty,,,,
,node,-1.3333,60.3333,,Shetland,,,,
,node,-3.9225,54.9384,,Castle Douglas,,,,
,node,-2.45,52.7,,Wrockwardine Wood,,,,
,node,-3.7116,51.5169,,Cornelly,,,,
,node,-4.94,55.98,,Cowal,,,,
,node,-2.434,55.5983,,Kelso,,,,
,node,-1.38,53.5,,Brampton Bierlow,,,,
,node,-0.6469,53.5534,,Bottesford,,,,
,node,-2.0947,52.761,,Acton Trussell,,,,
,node,-4.4937,51.8201,,St. Clears,,,,
,node,1.1487,51.0744,,Sandgate,,,,
,node,-0.078,51.2786,,Caterham Valley,,,,
,node,-2.429,51.3769,,Newton St. Loe,,,,
,node,-2.92,53.26,,Strawberry,,,,
,node,-0.3374,51.3603,,Claygate,,,,
,node,-2.9558,53.143,,Dodleston,,,,
,node,-5.0559,55.8366,,Isle of Bute,,,,
,node,-1.7531,53.8291,,Wrose,,,,
,node,-2.7675,54.0226,,Scotforth,,,,
,node,-1.3078,52.5788,,Earl Shilton,,,,
,node,1.7001,52.675,,Ormesby St. Margaret with Scratby,,,,
,node,-4.0551,57.8117,,Tain,,,,
,node,-1.515,52.3775,,Finham,,,,
,node,-3.8349,51.676,,Dyffryn Clydach,,,,
,node,-1.5109,55.1854,,Newbiggin by the Sea,,,,
,node,-2.505,51.4358,,Hanham Abbots,,,,
,node,0.5268,51.3429,,Walderslade,,,,
,node,-4.03,50.39,,Plympton Chaddlewood,,,,
,node,-2.2398,51.7438,,Cainscross,,,,
,node,-4.0625,51.0498,,Tawstock,,,,
,node,-3.4485,53.2593,,St. Asaph,,,,
,node,-2.4465,52.6571,,Stirchley,,,,
,node,-1.544,52.2472,,Bishop's Tachbrook,,,,
,node,-3.22,51.78,,Ebbw Vale North,,,,
,node,-2.1141,52.0052,,Northway,,,,
,node,0.2458,50.8066,,Willingdon,,,,
,node,-2.5488,53.524,,Hindley Green,,,,
,node,0.44,51.53,,The Homesteads,,,,
,node,1.2137,51.9296,,Ramsey,,,,
,node,-3.5167,54.45,,Beckermet,,,,
,node,-1.01,51.46,,Norcot,,,,
,node,-2.93,53.29,,Netherpool,,,,
,node,-2.74,53.38,,Birchfield,,,,
,node,-0.3954,54.2426,,Eastfield,,,,
,node,-2.9587,58.9818,,Kirkwall,,,,
,node,-2.7077,53.334,,Halton Brook,,,,
,node,1.0833,51.8,,St. Osyth,,,,
,node,0.1179,52.2335,,Orchard Park,,,,
,node,-1.85,51.55,,Lydiard,,,,
,node,-3.0894,52.8986,,Selattyn,,,,
,node,-0.5632,51.6701,,Little Chalfont,,,,
,node,-2.0648,52.3025,,Stoke,,,,
,node,0.4238,51.5162,,Stanford-le-Hope,,,,
,node,-2.76,53.37,,Broadheath,,,,
,node,-2.6884,51.4808,,Pill,,,,
,node,-2.4707,51.2847,,Westfield,,,,
,node,-1.0608,53.4202,,Harworth Bircotes,,,,
,node,-4.1366,53.1806,,Pentir,,,,
,node,-0.1492,51.7045,,Northaw,,,,
,node,0.006,51.1613,,Dormansland,,,,
,node,1.3075,51.9738,,Trimley St. Mary,,,,
,node,-1.8125,52.3793,,Cheswick Green,,,,
,node,-2.8981,51.3633,,St. Georges,,,,
,node,-6.05,55.6833,,Kintyre,,,,
,node,-3.1727,51.7895,,Nantyglo,,,,
,node,-1.3137,51.6846,,St. Helen Without,,,,
,node,-2.7471,53.78,,Ingol,,,,
,node,-2.767,53.854,,Myerscough,,,,
,node,-1.4901,52.2186,,Chesterton,,,,
,node,-2.97,51.13,,Bridgwater Without,,,,
,node,-4.49,54.95,,Mid Galloway,,,,
,node,-3.6043,51.5331,,Newcastle Higher,,,,
,node,-4.9076,50.5517,,St. Minver Lowlands,,,,
,node,-5.6333,55.3167,,South Kintyre,,,,
,node,-5.0271,54.9024,,Stranraer,,,,
,node,-3.1008,51.608,,Risca West,,,,
,node,-1.4196,53.5734,,Cudworth,,,,
,node,-2.083,52.6471,,Hilton,,,,
,node,1.1327,51.3505,,Herne,,,,
,node,-0.8,52.04,,Abbey Hill,,,,
,node,-0.753,51.6685,,Hughenden,,,,
,node,-2.0179,52.3292,,Tutnall,,,,
,node,-4.9893,50.5262,,St. Merryn,,,,
,node,-3.4489,50.6953,,Clyst St. George,,,,
,node,-1.6058,52.3799,,Burton Green,,,,
,node,1.3161,51.3339,,Minster,,,,
,node,-4.0737,51.8032,,Gorslas,,,,
,node,-1.8286,50.8302,,St. Leonards,,,,
,node,-6.39,58.22,,Steornabhagh a Tuath,,,,
,node,-1.3417,51.0281,,Compton,,,,
,node,-3.0186,51.5615,,Tredegar Park,,,,
,node,-3.5459,50.3937,,Churston-with-Galmpton,,,,
,node,0.2517,50.9717,,Heathfield,,,,
,node,0.434,51.6097,,Great Burstead,,,,
,node,-2.7728,53.3761,,Hough Green,,,,
,node,-1.0447,51.4398,,Holybrook,,,,
,node,0.3453,51.5704,,West Horndon,,,,
,node,0.3964,51.2712,,Kings Hill,,,,
,node,-2.09,53.53,,Alexandra,,,,
,node,-1.3325,53.1967,,Heath,,,,
,node,-3.746,51.5863,,Tai-Bach,,,,
,node,-1.3821,53.9831,,Great Ribston with Walshford,,,,
,node,-2.4225,51.3151,,Peasedown St. John,,,,
,node,-2.7213,53.81,,Broughton,,,,
,node,-2.1301,52.7797,,Hyde Lea,,,,
,node,-2.2717,53.0166,,Silverdale,,,,
,node,-1.1238,51.2794,,Rooksdown,,,,
,node,-3.6938,51.5289,,Pyle,,,,
,node,0.2916,52.7975,,Terrington St. Clement,,,,
,node,-0.4329,51.8548,,Slip End,,,,
,node,-1.4025,50.9826,,Valley Park,,,,
,node,-0.29,52.53,,Hampton Vale,,,,
,node,-1.5236,52.7142,,Oakthorpe,,,,
,node,0.5277,51.8624,,Great Notley,,,,
,node,-1.6938,52.6566,,Wigginton,,,,
,node,-1.5777,52.319,,Leek Wootton,,,,
,node,-0.572,51.6345,,Chalfont St. Giles,,,,
,node,-2.71,53.38,,Halton View,,,,
,node,-1.5521,54.2775,,Exelby,,,,
,node,-2.6611,53.345,,Sandymoor,,,,
,node,-0.0089,51.7807,,Stanstead St. Margarets,,,,
,node,0.3728,52.2654,,Exning,,,,
,node,-4.3488,50.4084,,St. Germans,,,,
,node,-1.0379,51.4595,,Tilehurst,,,,
,node,-1.2063,50.7102,,Havenstreet,,,,
,node,-0.167,51.9293,,Great Ashby,,,,
,node,-2.5448,53.3718,,Grappenhall,,,,
,node,0.0816,52.5106,,Wimblington,,,,
,node,-0.9601,50.8912,,Rowlands Castle,,,,
,node,-2.51,51.48,,South Gloucestershire,,,,
,node,-0.93,52.22,,West Hunsbury,,,,
,node,-1.4946,54.5305,,Morton Palms,,,,
,node,-2.2507,52.4129,,Wolverley,,,,
,node,-2.9142,53.173,,Lache,,,,
,node,-0.6926,52.3784,,Barton Seagrave,,,,
,node,-4.8341,50.3423,,St. Mewan,,,,
,node,0.4655,51.5207,,Corringham,,,,
,node,-1.06,53.5,,Finningley,,,,
,node,-4.9768,51.9938,,Fishguard,,,,
,node,-5.6797,50.1244,,St. Just,,,,
,node,-0.4701,53.1939,,Branston,,,,
,node,0.326,53.2286,,Chapel St. Leonards,,,,
,node,-1.5599,54.6618,,Chilton,,,,
,node,-1.52,54.85,,Little Lumley,,,,
,node,-1.1587,53.0268,,Bestwood St. Albans,,,,
,node,-1.5098,54.6486,,Bradbury,,,,
,node,-1.3653,53.7432,,Allerton Bywater,,,,
,node,-0.8157,53.1818,,Sutton-on-Trent,,,,
,node,-3.1351,51.0151,,Bishop's Hull,,,,
,node,-1.0196,51.257,,Mapledurwell,,,,
,node,-0.71,51.53,,Maidenhead Riverside,,,,
,node,1.3112,51.9878,,Trimley St. Martin,,,,
,node,-2.2205,50.6789,,Wool,,,,
,node,-1.4471,54.5102,,Middleton St. George,,,,
,node,-4.7386,50.3379,,Carlyon,,,,
,node,-1.37,53.51,,Hoober,,,,
,node,1.4014,52.6237,,Postwick with Witton,,,,
,node,-1.32,53.42,,Sitwell,,,,
,node,-0.848,51.8018,,Stone with Bishopstone,,,,
,node,-2.26,55.65,,Mid Berwickshire,,,,
,node,-4.8504,50.5008,,St. Breock,,,,
,node,-7.4573,56.9803,,"Barraigh,Bhatarsaigh",,,,
,node,-1.6659,52.8235,,Outwoods,,,,
,node,-1.6074,52.7971,,Brizlincote,,,,
,node,-0.7162,52.0177,,Simpson,,,,
,node,-3.4175,51.4041,,St. Athan,,,,
,node,-2.2087,52.2335,,North Claines,,,,
,node,-3.5835,51.5994,,Garw Valley,,,,
,node,-1.4073,53.1259,,Shirland,,,,
,node,-1.37,53.57,,North,,,,
,node,-1.537,53.9605,,Pannal,,,,
,node,-2.6549,53.824,,Whittingham,,,,
,node,-1.0903,54.0189,,Wigginton,,,,
,node,-1.371,52.7116,,Hugglescote,,,,
,node,-1.7974,50.8732,,Ellingham,,,,
,node,1.3001,52.587,,Caistor St. Edmund,,,,
,node,-3.1382,51.701,,Llanhilleth,,,,
,node,-3.2167,54.1833,,Askam,,,,
,node,-3.2845,50.7466,,Ottery St. Mary,,,,
,node,-2.0157,52.4056,,New Frankley in Birmingham,,,,
,node,0.0495,52.6305,,Wisbech St. Mary,,,,
,node,-4.8907,50.5637,,St. Minver Highlands,,,,
,node,-1.0891,52.9562,,Colwick,,,,
,node,-5.0544,50.367,,St. Newlyn East,,,,
,node,0.3479,51.5973,,Herongate,,,,
,node,-0.2622,51.9207,,St. Ippolyts,,,,
,node,-4.9249,55.9471,,Dunoon,,,,
,node,-2.7366,54.0258,,Quernmore,,,,
,node,0.1081,52.2525,,Histon,,,,
,node,-1.33,53.47,,Silverwood,,,,
,node,-3.3616,51.6369,,Ynysybwl,,,,
,node,-0.8822,52.1706,,Courteenhall,,,,
,node,-1.1939,51.7615,,Risinghurst,,,,
,node,-3.132,52.0706,,Hay,,,,
,node,1.0413,51.9998,,Capel St. Mary,,,,
,node,-1.3762,53.5353,,Darfield,,,,
,node,-1.1145,50.7128,,Nettlestone,,,,
,node,-2.4475,53.6565,,North Turton,,,,
,node,-0.73,51.53,,Belmont,,,,
,node,-0.8413,51.8154,,Coldharbour,,,,
,node,-1.73,51.56,,Covingham,,,,
,node,-1.22,54.54,,Ladgate,,,,
,node,-2.274,52.2098,,Lower Broadheath,,,,
,node,-1.6547,52.4793,,Maxstoke,,,,
,node,-4.0536,52.7209,,Barmouth,,,,
,node,-1.2557,52.7963,,Hathern,,,,
,node,-2.7031,53.3155,,Beechwood,,,,
,node,-7.36,57.65,,Beinn na Foghla agus Uibhist a Tuath,,,,
,node,-1.2273,50.725,,Wootton Bridge,,,,
,node,0.4342,51.5227,,Stanford,,,,
,node,1.3655,51.328,,Cliffsend,,,,
,node,-5.0245,50.3193,,St. Erme,,,,
,node,-2.1104,50.6889,,Wareham Town,,,,
,node,-3.4423,51.46,,Cowbridge with Llanblethian,,,,
,node,-2.4476,51.2919,,Radstock,,,,
,node,0.935,51.8528,,East Donyland,,,,
,node,-3.2994,58.9614,,Stromness,,,,
,node,-1.2102,50.7283,,Fishbourne,,,,
,node,0.2294,51.1362,,Rusthall,,,,
,node,-2.7222,52.0771,,Holmer,,,,
,node,-2.7669,53.627,,Mawdesley,,,,
,node,-0.7355,51.5339,,Furze Platt,,,,
,node,-2.7515,52.0431,,Belmont Rural,,,,
,node,-2.1788,52.4127,,Churchill,,,,
,node,-4.5171,50.4575,,Dobwalls,,,,
,node,-1.7725,53.9053,,Burley,,,,
,node,-2.6889,53.4871,,Seneley Green,,,,
,node,-1.24,54.53,,Hemlington,,,,
,node,-1.6501,54.6515,,Dene Valley,,,,
,node,-3.3272,50.6296,,Budleigh Salterton,,,,
,node,-3.2985,51.4824,,St. Georges-super-Ely,,,,
,node,0.1804,51.412,,Hextable,,,,
,node,-1.2405,53.4223,,Hellaby,,,,
,node,0.6015,51.6652,,Woodham Ferrers,,,,
,node,-0.5985,53.1697,,South Hykeham,,,,
,node,-2.2491,53.3517,,Styal,,,,
,node,-4.9226,50.5095,,St. Issey,,,,
,node,-0.4655,52.6359,,St. Martin's Without,,,,
,node,-2.8335,51.3139,,Winscombe,,,,
,node,-4.7927,50.3083,,Pentewan Valley,,,,
,node,-0.5826,52.9309,,Londonthorpe,,,,
,node,-3.455,51.6101,,Pen-y-Graig,,,,
,node,-2.145,52.8101,,Doxey,,,,
,node,-1.3426,52.8941,,Draycott,,,,
,node,-1.4151,54.7991,,South Hetton,,,,
,node,-2.3662,52.7552,,Chetwynd Aston,,,,
,node,-0.9039,52.493,,Great Bowden,,,,
,node,-0.7636,51.5299,,Pinkneys Green,,,,
,node,-3.4603,51.6335,,Llwyn-y-Pia,,,,
,node,-2.7871,52.811,,Myddle,,,,
,node,-4.7386,51.7423,,"Kilgetty/Begelly,Begelly",,,,
,node,-1.395,53.1989,,Grassmoor,,,,
,node,-1.2,53.59,,Norton,,,,
,node,-2.7167,53.8726,,Claughton,,,,
,node,-0.6,51.48,,Eton,,,,
,node,-1.8609,53.8217,,Wilsden,,,,
,node,-3.4725,54.5596,,Arlecdon,,,,
,node,-1.5111,53.3342,,Beauchief,,,,
,node,-1.3459,54.5389,,Preston-on-Tees,,,,
,node,-2.4253,51.4534,,Wick,,,,
,node,-1.7816,51.5931,,Penhill,,,,
,node,-2.7583,54.6436,,Yanwath,,,,
,node,-1.4,53.27,,Chesterfield,,,,
,node,-1.366,52.6986,,Ellistown,,,,
,node,-1.49,53.52,,Penistone,,,,
,node,0.4725,51.6061,,Ramsden Crays,,,,
,node,1.0814,52.0306,,Copdock,,,,
,node,-2.1423,51.9842,,Wheatpieces,,,,
,node,-4.0622,53.1981,,Llanllechid,,,,
,node,-2.8664,53.7087,,Hesketh-with-Becconsall,,,,
,node,-3.0065,52.9249,,St. Martin's,,,,
,node,-1.46,53.43,,East Ecclesfield,,,,
,node,-2.4266,59.3717,,North Isles,,,,
,node,-1.712,55.2787,,Thirston,,,,
,node,-0.6347,52.0427,,Hulcote,,,,
,node,-2.1522,51.4967,,Kington St. Michael,,,,
,node,-2.7809,51.4592,,Clapton-in-Gordano,,,,
,node,-2.7438,53.9448,,Nether Wyresdale,,,,
,node,-1.7371,53.8897,,Menston,,,,
,node,-2.787,51.7814,,Mitchell Troy,,,,
,node,-2.1922,51.7208,,Brimscombe,,,,
,node,-0.5458,52.1195,,Kempston Rural,,,,
,node,-5.2655,51.8809,,St. David's,,,,
,node,-1.2,54.55,,Park End,,,,
,node,-0.7699,53.0463,,Fernwood,,,,
,node,-1.6304,52.0631,,Shipston on Stour,,,,
,node,-2.64,51.22,,St. Cuthbert Out,,,,
,node,-0.1165,51.8585,,Watton-at-Stone,,,,
,node,-3.09,52.97,,Llangollen Rural,,,,
,node,-1.93,53.71,,Ryburn,,,,
,node,-1.157,52.4498,,Misterton with Walcote,,,,
,node,-1.9942,52.8297,,Hixon,,,,
,node,-0.8081,51.4711,,Waltham St. Lawrence,,,,
,node,-5.197,50.2402,,St. Day,,,,
,node,-6.3019,49.9203,,St. Mary's,,,,
,node,-0.3535,52.0294,,Campton,,,,
,node,-1.6965,55.2014,,Hebron,,,,
,node,-5.4161,50.1578,,St. Erth,,,,
,node,-0.0351,51.2847,,Woldingham,,,,
,node,-3.12,59.01,,West Mainland,,,,
,node,-0.453,53.7515,,Kirk Ella,,,,
,node,-1.76,51.55,,Chiseldon,,,,
,node,-2.9585,50.8479,,Tatworth,,,,
,node,-2.4006,53.2592,,Nether Peover,,,,
,node,-0.5145,52.1295,,Great Denham,,,,
,node,-2.5563,53.2201,,Whitegate,,,,
,node,0.4827,51.6217,,Ramsden Bellhouse,,,,
,node,-1.7333,55.3333,,Newton-on-the-Moor,,,,
,node,-0.5309,52.26,,Knotting,,,,
,node,-1.5021,52.8745,,Stenson Fields,,,,
,node,-1.9428,53.3395,,Chinley,,,,
,node,0.5485,51.6087,,Shotgate,,,,
,node,-2.5107,52.1885,,Bromyard,,,,
,node,-4.2322,53.3128,,Llanfair Mathafarn Eithaf,,,,
,node,-0.95,51.46,,Eye,,,,
,node,-2.4001,52.7368,,Lilleshall,,,,
,node,1.4904,52.6216,,Lingwood,,,,
,node,-4.76,50.33,,St. Austell Bay,,,,
,node,-0.9931,52.5442,,Kibworth Harcourt,,,,
,node,-0.74,50.9855,,Midhurst,,,,
,node,-1.8827,52.2927,,Mappleborough Green,,,,
,node,-0.08,52.75,,The Moultons,,,,
,node,-4.5191,50.3313,,Polperro,,,,
,node,-3.643,53.2881,,Llanddulas,,,,
,node,-1.8714,53.8416,,Harden,,,,
,node,-1.3993,52.3841,,Brandon,,,,
,node,-0.9054,51.3963,,Arborfield,,,,
,node,-1.5976,54.8206,,Kimblesworth,,,,
,node,1.3722,51.1542,,St. Margaret's At Cliffe,,,,
,node,-4.56,53.29,,Village,,,,
,node,-1.7338,54.3973,,St. Martin's,,,,
,node,-1.3532,52.8695,,Shardlow,,,,
,node,-1.721,52.8838,,Foston,,,,
,node,-4.8832,50.3873,,St. Dennis,,,,
,node,-4.9754,51.7888,,Merlin's Bridge,,,,
,node,0.9376,51.2898,,Boughton under Blean,,,,
,node,-2.6707,53.3406,,Windmill Hill,,,,
,node,-1.7767,52.3516,,Hockley Heath,,,,
,node,-0.481,53.3066,,Welton,,,,
,node,0.9865,51.8771,,Elmstead,,,,
,node,-0.0905,52.903,,Sutterton,,,,
,node,0.2449,53.1598,,Burgh Le Marsh,,,,
,node,1.3855,51.181,,Ringwould with Kingsdown,,,,
,node,-2.2204,52.5457,,Trysull,,,,
,node,-0.582,51.2169,,Artington,,,,
,node,-1.6634,54.379,,Brough with St. Giles,,,,
,node,-4.9448,51.7915,,Uzmaston,,,,
,node,0.2029,50.8279,,Long Man,,,,
,node,-2.8271,53.5614,,Lathom South,,,,
,node,-4.447,53.3876,,Mechell,,,,
,node,-2.1875,52.7136,,Lapley,,,,
,node,0.1842,52.1115,,Pampisford,,,,
,node,-1.6202,53.247,,Baslow,,,,
,node,-0.1795,51.852,,Woolmer Green,,,,
,node,-3.7427,52.624,,Glantwymyn,,,,
,node,1.1968,52.4429,,Tivetshall St. Margaret,,,,
,node,-3.0251,51.0402,,Creech St. Michael,,,,
,node,-1.5862,54.7286,,Croxdale,,,,
,node,-0.7815,52.0866,,Haversham-cum-Little Linford,,,,
,node,-3.4922,51.7274,,Pen-y-Waun,,,,
,node,-1.3787,52.9592,,Stanley,,,,
,node,-2.6054,53.6885,,Wheelton,,,,
,node,-2.3237,51.8932,,Rudford,,,,
,node,-2.3102,52.3068,,Astley,,,,
,node,-4.024,52.5502,,Aberdovey,,,,
,node,-0.9866,52.8129,,Broughton,,,,
,node,1.0359,52.1803,,Creeting St. Peter or West Creeting,,,,
,node,-4.8786,50.3524,,St. Stephen-in-Brannel,,,,
,node,-2.7741,53.3519,,Halebank,,,,
,node,-5.017,50.2557,,St. Clement,,,,
,node,-0.135,51.7896,,Hertingfordbury,,,,
,node,-1.3963,54.8365,,Seaton with Slingley,,,,
,node,-2.8519,54.3132,,Crosthwaite,,,,
,node,-3.837,51.8195,,Quarter Bach,,,,
,node,-1.3064,52.3623,,Cawston,,,,
,node,-2.2929,53.8225,,Higham-with-West Close Booth,,,,
,node,-4.8264,50.5805,,St. Endellion,,,,
,node,-1.8555,52.3774,,Tidbury Green,,,,
,node,-6.31,58.28,,Loch a Tuath,,,,
,node,-1.3529,50.9908,,Allbrook,,,,
,node,-1.6763,55.2259,,Tritlington,,,,
,node,-0.031,52.332,,Holywell-cum-Needingworth,,,,
,node,-2.9443,53.0415,,Abenbury,,,,
,node,-1.5214,53.2376,,Brampton,,,,
,node,-1.5676,55.2211,,Ellington,,,,
,node,-2.4549,53.7099,,Eccleshill,,,,
,node,0.3539,51.3296,,Vigo,,,,
,node,-1.1004,51.3032,,Sherborne St. John,,,,
,node,-6.8,57.9,,Na Hearadh agus Ceann a Deas nan Loch,,,,
,node,-3.1237,51.0322,,Staplegrove,,,,
,node,-2.89,58.89,,East Mainland,,,,
,node,-0.73,52.03,,Old Woughton,,,,
,node,-1.7,55.39,,Denwick (DET),,,,
,node,-0.5774,51.5233,,Wexham Court,,,,
,node,-0.6049,52.1904,,Carlton,,,,
,node,-2.1058,51.5704,,St. Paul Malmesbury Without,,,,
,node,-0.6171,52.9458,,Belton,,,,
,node,-2.9511,53.8091,,Weeton-with-Preese,,,,
,node,-0.7914,52.0651,,New Bradwell,,,,
,node,-5.6204,50.0751,,St. Buryan,,,,
,node,0.983,51.9743,,Stratford St. Mary,,,,
,node,-0.2486,52.0004,,Fairfield,,,,
,node,-0.8058,51.8325,,Watermead,,,,
,node,-2.1763,50.8371,,Blandford St. Mary,,,,
,node,-2.1041,50.715,,Wareham St. Martin,,,,
,node,-4.0361,51.6134,,Upper Killay,,,,
,node,-2.0791,52.866,,Sandon,,,,
,node,-1.837,52.3865,,Dickens Heath,,,,
,node,-2.69,53.56,,Shevington with Lower Ground,,,,
,node,-1.4962,53.2194,,Holymoorside,,,,
,node,-4.2332,52.9206,,Criccieth,,,,
,node,-2.9049,54.2395,,Upper Allithwaite,,,,
,node,-0.7181,53.0623,,Barnby in the Willows,,,,
,node,-2.2151,52.0611,,Upton-upon-Severn,,,,
,node,-0.543,51.4734,,Horton,,,,
,node,-1.9356,52.1312,,Norton,,,,
,node,-2.4057,51.8726,,Huntley,,,,
,node,-2.3219,51.7899,,Moreton Valence,,,,
,node,-0.6249,52.8783,,Little Ponton,,,,
,node,-0.6311,51.5359,,Britwell,,,,
,node,-6.32,58.21,,Sgire an Rubha,,,,
,node,0.9265,51.3297,,Graveney with Goodnestone,,,,
,node,-4.7994,50.5612,,St. Kew,,,,
,node,-2.4303,53.7132,,Yate,,,,
,node,-0.9115,52.9034,,Langar cum Barnstone,,,,
,node,-2.1071,52.1355,,Drakes Broughton,,,,
,node,-1.7071,54.8277,,Burnhope,,,,
,node,0.2407,52.3595,,Thetford,,,,
,node,-5.0881,50.0505,,St. Keverne,,,,
,node,-0.8545,52.9608,,Orston,,,,
,node,0.2447,51.393,,Horton Kirby,,,,
,node,-5.0147,50.1832,,St. Just-in-Roseland,,,,
,node,-1.1631,51.3437,,Baughurst,,,,
,node,-4.5289,53.2588,,Llanfair-yn-Neubwll,,,,
,node,-6.82,58.2,,Sgir'Uige agus Ceann a Tuath nan Loch,,,,
,node,-1.3017,53.891,,Newton Kyme cum Toulston,,,,
,node,-3.4867,50.9908,,Bampton,,,,
,node,-0.6977,53.5708,,Ashby Parkland,,,,
,node,0.6867,51.1489,,Smarden,,,,
,node,-0.0339,51.3154,,Chelsham,,,,
,node,0.0693,52.2614,,Oakington,,,,
,node,0.6294,51.2435,,Broomfield,,,,
,node,1.0829,52.1666,,Creeting St. Mary,,,,
,node,-4.7058,51.6907,,St. Mary Out Liberty,,,,
,node,-2.6852,53.3103,,Sutton Weaver,,,,
,node,-3.5958,54.4944,,St. Bees,,,,
,node,-1.25417,54.52436,,Stainton,,,,
,node,-4.3791,50.492,,St. Ive,,,,
,node,-0.5741,53.3022,,Scampton,,,,
,node,-2.8495,53.7903,,Treales,,,,
,node,0.3779,51.2596,,Mereworth,,,,
,node,0.16,52.23,,Milton (DET),,,,
,node,-3.1607,54.1763,,Lindal,,,,
,node,-1.21,53.21,,Langwith,,,,
,node,-1.9329,51.7151,,Preston,,,,
,node,-1.0144,52.974,,Shelford,,,,
,node,-1.204233,54.554386,,Berwick Hills,,,,
,node,0.7678,51.3333,,Bapchild,,,,
,node,-4.4721,50.5115,,St. Cleer,,,,
,node,-0.55,51.6795,,Latimer,,,,
,node,-1.9424,54.9345,,Broomley,,,,
,node,0.5075,51.828,,Great Leighs,,,,
,node,-0.5217,52.6704,,Great Casterton,,,,
,node,-2.0631,52.7383,,Teddesley Hay,,,,
,node,-1.4758,53.8543,,Shadwell,,,,
,node,-1.3473,51.0949,,Littleton,,,,
,node,-0.6337,51.896,,Great Billington,,,,
,node,-1.2744,50.7395,,Whippingham,,,,
,node,-0.8212,51.8339,,Buckingham Park,,,,
,node,-0.4606,53.0375,,Cranwell,,,,
,node,-4.2973,50.4736,,St. Mellion,,,,
,node,-1.3528,51.1697,,Bullington,,,,
,node,-3.493,51.6252,,Cwm Clydach,,,,
,node,0.0906,51.8846,,Little Hadham,,,,
,node,-0.9239,52.6844,,Twyford,,,,
,node,-2.0026,54.2463,,Burton-cum-Walden,,,,
,node,-1.6838,54.203,,Swinton with Warthermarske,,,,
,node,-2.2929,54.1456,,Horton in Ribblesdale,,,,
,node,-1.7045,51.8779,,Upper Rissington,,,,
,node,-0.3595,51.9935,,Shillington,,,,
,node,-1.9678,54.9487,,Broomhaugh,,,,
,node,-2.8587,50.7538,,Whitchurch Canonicorum,,,,
,node,-2.7267,53.0298,,No Man's Heath,,,,
,node,-1.7643,54.6218,,Evenwood,,,,
,node,-1.1614,52.6936,,Thurcaston,,,,
,node,-2.9017,52.7939,,Ruyton-XI-Towns,,,,
,node,-0.4084,53.9833,,Skerne,,,,
,node,-2.1286,51.5216,,Stanton St. Quintin,,,,
,node,0.0247,51.1116,,Ashurst Wood,,,,
,node,-0.6201,53.1535,,Aubourn with Haddington,,,,
,node,-3.1801,51.0718,,Bishop's Lydeard,,,,
,node,-1.2914,51.8452,,Hampton Gay,,,,
,node,-1.3916,53.7612,,Great Preston,,,,
,node,-5.0953,51.8205,,Nolton,,,,
,node,-2.2505,50.6259,,West Lulworth,,,,
,node,1.1428,52.4056,,Burston,,,,
,node,-0.7854,51.5912,,Marlow Bottom,,,,
,node,-1.2924,53.791,,Huddleston with Newthorpe,,,,
,node,-4.9467,51.8386,,Rudbaxton,,,,
,node,-1.76,52.42,,Bickenhill,,,,
,node,1.2512,51.3631,,St. Nicholas At Wade,,,,
,node,-1.312,50.7419,,Northwood,,,,
,node,-0.6333,53.0782,,Brant Broughton,,,,
,node,-1.9783,52.9123,,Leigh,,,,
,node,-0.0361,50.8713,,St. Ann (Without),,,,
,node,-6.46,58.4,,An Taobh Siar agus Nis,,,,
,node,-0.9744,52.9691,,Newton,,,,
,node,-1.3915,51.6872,,Fyfield,,,,
,node,-4.0987,50.5091,,Horrabridge,,,,
,node,-4.1052,50.5391,,Whitchurch,,,,
,node,0.0226,51.8221,,Wareside,,,,
,node,-0.6516,53.2189,,Doddington,,,,
,node,-3.4098,51.6072,,Cymmer,,,,
,node,-2.7406,53.2199,,Ashton Hayes,,,,
,node,-0.857,51.8348,,Berryfields,,,,
,node,-2.8656,53.2526,,Stoak,,,,
,node,-3.0632,54.5432,,St. John's Castlerigg,,,,
,node,0.262,51.0194,,Mayfield,,,,
,node,0.2786,51.2453,,Shipbourne,,,,
,node,-4.03,52.47,,Geneu'r Glyn,,,,
,node,-4.5553,50.508,,St. Neot,,,,
,node,-3.3704,54.3913,,Irton with Santon,,,,
,node,-2.9078,51.385,,Wick St. Lawrence,,,,
,node,-4.6435,50.4097,,St. Winnow,,,,
,node,-0.1018,51.1932,,Outwood,,,,
,node,-1.222,52.3985,,Newton,,,,
,node,-2.09,51.91,,Cheltenham,,,,
,node,-0.5528,52.585,,Duddington-with-Fineshade,,,,
,node,-0.9246,54.0489,,Harton,,,,
,node,-1.2823,50.5873,,Niton,,,,
,node,-0.3096,52.4771,,Denton,,,,
,node,0.7885,51.9827,,Bures St. Mary,,,,
,node,-2.8,54.01,,Scotforth (DET),,,,
,node,-2.4636,53.272,,Lostock Gralam,,,,
,node,-0.6464,51.9511,,Heath,,,,
,node,-2.6686,53.7082,,Cuerden,,,,
,node,-1.06,53.97,,Heworth Without,,,,
,node,-1.0872,51.012,,West Meon,,,,
,node,-1.0994,53.1763,,Kings Clipstone,,,,
,node,-1.084,53.3998,,Styrrup with Oldcotes,,,,
,node,-3.073,52.5406,,Churchstoke,,,,
,node,-3.5907,51.4594,,St. Bride's Major,,,,
,node,-1.3014,53.3821,,Ulley,,,,
,node,-0.4641,50.8078,,Kingston,,,,
,node,-0.1186,51.2837,,Chaldon,,,,
,node,-2.0653,52.8481,,Salt,,,,
,node,-4.9756,51.7193,,Llanstadwell,,,,
,node,-1.153,51.2917,,Wootton St. Lawrence,,,,
,node,-1.1578,54.4492,,Great Broughton,,,,
,node,-4.2366,53.3537,,Moelfre,,,,
,node,0.2971,52.7044,,Tilney St. Lawrence,,,,
,node,-2.0118,52.299,,Bentley Pauncefoot,,,,
,node,-0.8696,51.7835,,Dinton-with-Ford,,,,
,node,-1.7162,54.6302,,West Auckland,,,,
,node,-0.3933,52.5714,,Sibson-cum-Stibbington,,,,
,node,-4.4226,50.373,,St. Martin-by-Looe,,,,
,node,-1.8121,52.653,,Swinfen,,,,
,node,-1.8335,53.8139,,Sandy Lane,,,,
,node,-1.3144,52.3358,,Thurlaston,,,,
,node,-0.5125,52.7709,,Counthorpe,,,,
,node,-4.4097,50.632,,St. Thomas the Apostle Rural,,,,
,node,-3.793,50.2799,,West Alvington,,,,
,node,0.1493,51.3409,,Badgers Mount,,,,
,node,-2.7742,53.9321,,Cabus,,,,
,node,-1.7538,53.0006,,Clifton,,,,
,node,-2.6707,54.2903,,Old Hutton,,,,
,node,-1.1929,54.7008,,Headland,,,,
,node,-3.5924,50.7659,,Newton St. Cyres,,,,
,node,-2.4889,53.8541,,Aighton,,,,
,node,1.1569,52.3657,,Scole,,,,
,node,-1.354,52.3276,,Bourton,,,,
,node,-2.843,52.0188,,Kingstone,,,,
,node,-2.1184,53.8625,,Laneshaw Bridge,,,,
,node,-1.7408,51.5647,,Nythe,,,,
,node,-2.38,51.4819,,Dyrham,,,,
,node,-2.2468,54.9749,,Haydon,,,,
,node,1.38,52.5706,,Yelverton,,,,
,node,-1.8302,50.9131,,Alderholt,,,,
,node,-3.2356,52.1698,,Glascwm,,,,
,node,-1.6603,53.552,,Gunthwaite,,,,
,node,-3.7221,50.3659,,Halwell,,,,
,node,-0.9188,53.0502,,Fiskerton cum Morton,,,,
,node,-4.08,51.09,,Pilton West,,,,
,node,1.6562,52.4859,,Burgh St. Peter,,,,
,node,-0.2398,51.8233,,Ayot St. Peter,,,,
,node,0.438,51.0086,,Etchingham,,,,
,node,-1.1128,50.8743,,Southwick,,,,
,node,-2.6481,51.8876,,Marstow,,,,
,node,-1.5116,51.856,,Cornbury,,,,
,node,-2.6416,53.597,,Worthington,,,,
,node,-0.8312,51.6399,,Piddington,,,,
,node,-0.8221,51.7597,,Great Kimble cum Marsh,,,,
,node,-2.6096,52.0592,,Dormington,,,,
,node,-2.4116,51.002,,Abbas,,,,
,node,0.7266,52.2695,,Fornham St. Martin,,,,
,node,-2.7007,51.6628,,St. Arvans,,,,
,node,-1.1496,51.5506,,Moulsford,,,,
,node,-3.1241,52.799,,Llanyblodwel,,,,
,node,-4.1522,51.872,,Llanegwad,,,,
,node,-3.3673,53.3072,,Trelawnyd,,,,
,node,-2.8317,54.3672,,Nether Staveley,,,,
,node,-3.98,51.87,,Dyffryn Cennen,,,,
,node,-2.4026,53.8407,,Barrow,,,,
,node,-0.2763,52.3919,,Upton,,,,
,node,-3.0883,52.7806,,Llanymynech,,,,
,node,-1.6794,52.7364,,Catton,,,,
,node,-2.564387,51.536197,,Stoke Lodge,,,,
,node,0.6498,51.9209,,Greenstead Green,,,,
,node,-1.6391,55.0413,,Hazlerigg,,,,
,node,-2.662183,53.313643,,Daresbury,,,,
,node,-3.2766,53.1248,,Llanbedr Dyffryn Clwyd,,,,
,node,-0.8008,53.359,,West Burton,,,,
,node,-2.6462,52.671,,Wroxeter,,,,
,node,-1.9954,52.8438,,Stowe-by-Chartley,,,,
,node,0.1111,52.7282,,Tydd St. Giles,,,,
,node,-0.7187,51.2224,,Seale,,,,
,node,-3.3299,53.0917,,Efenechtyd,,,,
,node,0.2026,51.953,,Quendon,,,,
,node,0.4153,51.8603,,Flitch Green,,,,
,node,-2.1907,51.0511,,Sedgehill,,,,
,node,-4.973,50.4939,,St. Ervan,,,,
,node,-0.4501,52.3708,,Bythorn,,,,
,node,-4.3506,53.1639,,Rhosyr,,,,
,node,-1.286,54.0302,,Thorpe Underwoods,,,,
,node,-2.6862,53.1233,,Beeston,,,,
,node,-1.6182,54.5262,,Low Coniscliffe,,,,
,node,0.3663,52.7021,,Wiggenhall St. Germans,,,,
,node,-1.6107,55.3179,,Togston,,,,
,node,0.06,52.7362,,Sutton St. James,,,,
,node,-2.6732,53.8268,,Goosnargh,,,,
,node,-1.4002,54.0252,,Coneythorpe,,,,
,node,-2.6384,51.7345,,St. Briavels,,,,
,node,-1.5165,52.8534,,Twyford,,,,
,node,-0.4988,51.2197,,Albury,,,,
,node,0.0787,51.7862,,Eastwick,,,,
,node,-3.06,51.01,,Stoke St. Mary,,,,
,node,-0.2418,53.1778,,Stixwould,,,,
,node,-1.8836,52.6983,,Farewell,,,,
,node,1.145,52.6363,,Marlingford,,,,
,node,-1.4077,51.2589,,St. Mary Bourne,,,,
,node,-2.4642,52.1822,,Linton,,,,
,node,-2.287,52.9406,,Chapel,,,,
,node,-1.4204,51.6815,,Kingston Bagpuize with Southmoor,,,,
,node,1.6603,52.6772,,Ormesby St. Michael,,,,
,node,-5.0118,50.4912,,St. Eval,,,,
,node,-3.5626,50.527,,Haccombe with Combe,,,,
,node,-2.7481,50.9168,,West,,,,
,node,-1.0352,53.9783,,Heworth Without,,,,
,node,-4.3021,50.4153,,Landrake with St. Erney,,,,
,node,-1.4772,54.7904,,Pittington,,,,
,node,-2.8347,50.934,,Seavington St. Michael,,,,
,node,-1.4832,52.5504,,Caldecote,,,,
,node,-1.7504,50.934,,Godshill,,,,
,node,-4.8778,51.8753,,Walton East,,,,
,node,1.6362,52.5432,,Fritton,,,,
,node,-3.2216,51.7993,,Rassau,,,,
,node,-1.7218,53.0245,,Offcote,,,,
,node,-1.5197,50.8953,,Ashurst,,,,
,node,1.3997,52.6416,,Great Plumstead,,,,
,node,-1.816,52.7056,,Curborough,,,,
,node,-1.3047,51.8474,,Shipton-on-Cherwell,,,,
,node,-3.0289,52.2029,,Kington,,,,
,node,-2.1498,53.898,,Kelbrook,,,,
,node,-2.5759,53.8849,,Chipping,,,,
,node,-1.7282,54.0995,,High,,,,
,node,-0.9977,54.009,,Stockton-on-the-Forest,,,,
,node,-4.6759,50.6679,,Forrabury,,,,
,node,-2.083,54.6245,,Middleton in Teesdale,,,,
,node,-2.5034,55.0229,,Thirlwall,,,,
,node,0.2073,50.7594,,East Dean,,,,
,node,-2.8411,52.9107,,Welshampton,,,,
,node,-0.5876,54.2264,,Snainton,,,,
,node,-0.9474,52.2917,,Church with Chapel Brampton,,,,
,node,-3.0587,53.5231,,Hightown,,,,
,node,0.0861,50.8468,,Firle,,,,
,node,-2.31,52,,Pendock (DET),,,,
,node,-2.612,50.7083,,Long Bredy,,,,
,node,-1.6011,55.2552,,Widdrington Village,,,,
,node,1.3882,52.0814,,Sutton Heath,,,,
,node,-0.5656,52.333,,Stanwick,,,,
,node,-0.6788,53.1499,,Witham St. Hughs,,,,
,node,-1.2576,54.5206,,Stainton,,,,
,node,-2.9323,51.04,,Stoke St. Gregory,,,,
,node,-1.1674,51.84,,Fencott,,,,
,node,0.7284,51.2958,,Milstead,,,,
,node,-2.6516,54.1458,,Arkholme-with-Cawood,,,,
,node,-4.0463,51.0527,,Bishop's Tawton,,,,
,node,-1.508,51.7249,,"Aston,Cote",,,,
,node,-3.7857,53.1569,,Llanddoged,,,,
,node,-2.7459,53.0922,,Harthill,,,,
,node,-2.2806,52.5732,,Rudge,,,,
,node,-0.51,52.9395,,Heydour,,,,
,node,-1.1854,51.797,,Beckley,,,,
,node,-1.7821,54.2694,,East Witton,,,,
,node,-1.5409,55.2133,,Lynemouth,,,,
,node,-3.793,53.2179,,Eglwysbach,,,,
,node,0.2162,53.3646,,Theddlethorpe St. Helen,,,,
,node,-2.335,51.606,,Hillesley,,,,
,node,1.1358,52.3437,,Brome,,,,
,node,-4.3435,51.7619,,St. Ishmael,,,,
,node,-4.2737,51.6026,,Llangennith,,,,
,node,-1.3933,53.6569,,Huntwick with Foulby,,,,
,node,-3.3709,54.7499,,Oughterside,,,,
,node,-1.3702,51.8467,,Blenheim,,,,
,node,-0.5618,51.1165,,Dunsfold,,,,
,node,0.2234,52.4573,,Downham,,,,
,node,-5.1185,50.1867,,St. Gluvias,,,,
,node,-0.7655,53.1738,,Besthorpe,,,,
,node,-3.64,53.2478,,Betws yn Rhos,,,,
,node,-3.6849,50.734,,Tedburn St. Mary,,,,
,node,-1.1009,52.2404,,Dodford,,,,
,node,-1.2817,51.3343,,Ecchinswell,,,,
,node,1.1844,51.2786,,Ickham,,,,
,node,-0.4766,52.304,,Dean,,,,
,node,-2.7211,52.8136,,Clive,,,,
,node,-1.4382,54.5983,,Stillington,,,,
,node,-1.03,53.34,,Barnby Moor (DET),,,,
,node,0.945,51.0064,,St. Mary in the Marsh,,,,
,node,-3.5243,50.7766,,Brampford Speke,,,,
,node,-2.234,51.7647,,Whiteshill,,,,
,node,-1.6162,55.2416,,Widdrington Station,,,,
,node,1.287,52.6966,,Horsham St. Faith,,,,
,node,-2.2635,52.5872,,Pattingham,,,,
,node,-0.8017,52.398,,Loddington,,,,
,node,-1.75,53.86,,Baildon,,,,
,node,0.1752,53.3143,,Strubby with Woodthorpe,,,,
,node,-2.7234,52.3318,,Richard's Castle (Shropshire),,,,
,node,-2.3073,51.9634,,Staunton,,,,
,node,-3.4319,50.7042,,Clyst St. Mary,,,,
,node,-2.1423,53.9323,,Thornton in Craven,,,,
,node,-0.2852,51.8781,,St. Paul's Walden,,,,
,node,-3.3113,51.4607,,St. Nicholas,,,,
,node,-0.4624,52.0938,,Wixams,,,,
,node,-1.8667,54.5167,,Rokeby,,,,
,node,-4.3333,50.6833,,St. Giles on the Heath,,,,
,node,-2.7547,52.0203,,Haywood,,,,
,node,-0.4021,52.7059,,Braceborough,,,,
,node,-2.7638,53.8771,,Catterall,,,,
,node,-1.7208,54.4471,,Gilling with Hartforth,,,,
,node,-2.7065,53.0026,,Tushingham-cum-Grindley,,,,
,node,-3.01,53.26,,Little Neston,,,,
,node,-0.8609,53.3717,,North,,,,
,node,-0.4289,53.0826,,Ashby De La Launde,,,,
,node,-3.905,51.0698,,East,,,,
,node,0.5056,52.9533,,Old Hunstanton,,,,
,node,-1.6663,52.1359,,Alderminster,,,,
,node,1.128,52.0912,,Whitton,,,,
,node,-2.1815,53.3062,,Mottram St. Andrew,,,,
,node,1.4362,52.5658,,Ashby St. Mary,,,,
,node,-2.4745,52.7785,,Tibberton,,,,
,node,-1.2775,53.8256,,Saxton with Scarthingwell,,,,
,node,-0.222,52.7271,,Deeping St. Nicholas,,,,
,node,-1.5917,53.9742,,Beckwithshaw,,,,
,node,-2.1402,52.1464,,Stoulton,,,,
,node,-3.5683,52.8705,,Llangywer,,,,
,node,-0.7053,53.87,,Shipton Thorpe,,,,
,node,-0.0999,51.8371,,Stapleford,,,,
,node,-0.1321,53.0229,,Holland Fen with Brothertoft,,,,
,node,1.6258,52.6832,,Rollesby,,,,
,node,-0.5209,52.5657,,King's Cliffe,,,,
,node,-0.9505,51.5618,,Bix,,,,
,node,-1.2225,53.4995,,Cadeby,,,,
,node,-1.3133,54.4887,,Castlelevington,,,,
,node,-3.9392,52.3542,,Trawsgoed,,,,
,node,-1.801,55.671,,Holy Island,,,,
,node,-1.5941,54.3314,,Ainderby Miers with Holtby,,,,
,node,-0.7503,52.1152,,Tyringham,,,,
,node,1.2644,52.4858,,Morningthorpe,,,,
,node,-2.7149,52.0921,,Pipe,,,,
,node,-0.8414,52.0344,,Calverton,,,,
,node,-1.91,53.03,,Cotton,,,,
,node,-3.9264,51.9232,,Manordeilo,,,,
,node,0.0472,53.4724,,Marshchapel,,,,
,node,-4.4927,50.7469,,Week St. Mary,,,,
,node,-3.5982,50.3251,,Stoke Fleming,,,,
,node,-2.3627,52.4935,,Quatt Malvern,,,,
,node,-1.7242,51.4703,,Ogbourne St. George,,,,
,node,-2.8012,51.4635,,Weston-in-Gordano,,,,
,node,-4.6833,52.0864,,St. Dogmaels,,,,
,node,0.5837,52.2422,,Barrow,,,,
,node,-1.1367,51.6628,,Drayton St. Leonard,,,,
,node,-0.581,53.926,,Middleton,,,,
,node,-3.3162,51.9938,,Felin-Fach,,,,
,node,-3.4153,52.2152,,Disserth,,,,
,node,-0.6234,54.2327,,Ebberston,,,,
,node,-4.2145,53.2817,,Pentraeth,,,,
,node,1.3593,51.2145,,Great Mongeham,,,,
,node,-2.82,52.92,,Maelor South,,,,
,node,-4.6885,50.5596,,St. Breward,,,,
,node,-4.7328,50.5525,,St. Tudy,,,,
,node,-3.8229,52.7541,,Brithdir,,,,
,node,-0.3131,52.4958,,Folksworth,,,,
,node,-1.05,51.3,,Sherfield Park,,,,
,node,0.3539,52.6747,,Wiggenhall St. Mary Magdalen,,,,
,node,-2.3702,52.0058,,Bromesberrow,,,,
,node,0.2356,53.0767,,Wainfleet St. Mary,,,,
,node,-4.842,50.2842,,St. Ewe,,,,
,node,-5.1383,51.7236,,St. Ishmael's,,,,
,node,-4.1373,51.0286,,Horwood,,,,
,node,0.5374,52.9606,,Holme Next the Sea,,,,
,node,-0.3321,53.011,,Ewerby,,,,
,node,-3.193,51.9065,,Cwmdu,,,,
,node,-0.1316,53.5746,,Great Coates,,,,
,node,-3.459,52.7607,,Llanwddyn,,,,
,node,-0.3439,52.8729,,Pointon,,,,
,node,-2.32,53.97,,Gisburn Forest,,,,
,node,-2.547,53.0215,,Broomhall,,,,
,node,-1.5218,53.5207,,Stainborough,,,,
,node,-1.8739,51.7031,,Ampney St. Peter,,,,
,node,-0.3207,51.1978,,Holmwood,,,,
,node,-2.2779,50.6618,,Winfrith Newburgh,,,,
,node,1.3574,51.2005,,Ripple,,,,
,node,-3.7569,51.0148,,Bishop's Nympton,,,,
,node,-0.317,51.8986,,King's Walden,,,,
,node,-3.6686,51.8074,,Tawe-Uchaf,,,,
,node,-0.7742,52.4035,,Thorpe Malsor,,,,
,node,-2.4243,51.9387,,Oxenhall,,,,
,node,1.19,52.3978,,Dickleburgh,,,,
,node,-3.6603,50.5076,,Denbury,,,,
,node,-0.6476,52.7842,,Gunby,,,,
,node,0.2729,52.7037,,Terrington St. John,,,,
,node,-1.4122,54.5394,,Longnewton,,,,
,node,-3.1874,51.04,,Cotford St. Luke,,,,
,node,-0.6517,51.7549,,Cholesbury-cum-St. Leonards,,,,
,node,-3.8365,51.2294,,Lynton,,,,
,node,-1.1878,53.2828,,Hodthorpe,,,,
,node,-1.0116,53.6131,,Fishlake,,,,
,node,1.1441,51.3081,,Westbere,,,,
,node,-3.4552,51.4203,,Llan-Maes,,,,
,node,0.411,51.6043,,Little Burstead,,,,
,node,-1.6609,52.8761,,Hoon,,,,
,node,-0.1241,52.3516,,Wyton-on-the-Hill,,,,
,node,-1.3402,52.3929,,King's Newnham,,,,
,node,-0.9199,51.012,,Sheet,,,,
,node,-4.8145,50.2486,,St. Goran,,,,
,node,-0.9119,52.852,,Clawson,,,,
,node,-4.2376,50.3614,,St. John,,,,
,node,-2.4097,52.6113,,Sutton Maddock,,,,
,node,-2.6341,54.1043,,Hornby-with-Farleton,,,,
,node,-1.856,51.84,,Hampnett,,,,
,node,-4.0213,50.3171,,Newton,,,,
,node,-0.8154,52.67,,Knossington,,,,
,node,-2.3326,51.428,,St. Catherine,,,,
,node,-1.1364,50.979,,Corhampton,,,,
,node,-2.465,51.6825,,Ham,,,,
,node,-2.177,52.1252,,Pirton,,,,
,node,-3.1221,51.056,,Kingston St. Mary,,,,
,node,-0.9667,53.2165,,Kirton,,,,
,node,-1.1458,52.4182,,Westrill,,,,
,node,-0.3191,52.2888,,Perry,,,,
,node,-0.8772,52.6006,,Tugby,,,,
,node,-2.6467,53.9853,,Over Wyresdale,,,,
,node,-6.3443,49.8909,,St. Agnes,,,,
,node,1.3665,52.4156,,St. Mary,,,,
,node,-2.0233,52.1315,,Hill,,,,
,node,-2.2126,53.9318,,Bracewell,,,,
,node,-1.5763,54.1252,,Lindrick with Studley Royal,,,,
,node,-2.7061,51.936,,Pencoyd,,,,
,node,-0.3293,53.4371,,Claxby,,,,
,node,-1.1023,50.7022,,St. Helens,,,,
,node,-2.7141,53.1663,,Clotton Hoofield,,,,
,node,0.7983,52.1856,,Bradfield St. Clare,,,,
,node,-1.1827,54.1552,,Thornton-on-the-Hill,,,,
,node,-2.6427,53.2485,,Norley,,,,
,node,-1.6168,51.8627,,Milton-under-Wychwood,,,,
,node,1.2952,52.7915,,Burgh,,,,
,node,-1.6509,53.0523,,Hognaston,,,,
,node,-3.5066,52.7123,,Banwy,,,,
,node,-3.3794,52.7248,,Llanfihangel,,,,
,node,-6.3366,49.9534,,Tresco,,,,
,node,-3.3418,53.2155,,Aberwheeler,,,,
,node,0.2011,53.3119,,Maltby Le Marsh,,,,
,node,-0.5337,52.847,,Bitchfield,,,,
,node,-1.6964,52.3553,,Chadwick End,,,,
,node,-2.7192,54.3956,,Whitwell,,,,
,node,-0.5729,53.3967,,Hemswell Cliff,,,,
,node,-2.2462,53.8567,,Roughlee Booth,,,,
,node,-4.1774,51.5641,,Penrice,,,,
,node,-0.3828,53.5821,,Melton Ross,,,,
,node,-1.4732,51.2393,,Enham Alamein,,,,
,node,-4.0133,52.6081,,Bryn-Crug,,,,
,node,-0.4568,52.0111,,Flitton,,,,
,node,-2.4875,52.1062,,Castle Frome,,,,
,node,-2.2118,51.606,,Westonbirt with Lasborough,,,,
,node,-1.2171,52.0766,,Marston St. Lawrence,,,,
,node,-0.0321,52.1792,,Kingston,,,,
,node,-2.0329,51.3182,,Worton,,,,
,node,-0.8316,51.2429,,Ewshot,,,,
,node,-0.2,52.57,,East,,,,
,node,-2.8248,54.3257,,Underbarrow,,,,
,node,-1.6398,52.0094,,Great Wolford,,,,
,node,-4.4667,50.4167,,St. Keyne,,,,
,node,-1.8078,52.0613,,Weston Subedge,,,,
,node,-3.3347,50.6662,,Bicton,,,,
,node,-2.3211,51.3009,,Norton St. Philip,,,,
,node,-0.1635,52.1113,,Wrestlingworth,,,,
,node,-4.1948,51.587,,Reynoldston,,,,
,node,-0.946,51.8064,,Nether Winchendon,,,,
,node,-1.961,54.4668,,Hope,,,,
,node,-4.67,51.17,,Torridge,,,,
,node,-3.553,50.6839,,Shillingford St. George,,,,
,node,-1.647,54.3512,,Appleton East,,,,
,node,-0.7009,52.22,,Easton Maudit,,,,
,node,-4.6084,50.3749,,St. Veep,,,,
,node,-2.447,52.5423,,Tasley,,,,
,node,-0.408,52.3465,,Catworth,,,,
,node,-2.3017,50.9465,,Hinton St. Mary,,,,
,node,-5.1979,51.7313,,Marloes,,,,
,node,-4.6098,50.737,,St. Gennys,,,,
,node,-2.3455,51.8106,,Longney,,,,
,node,-1.6998,51.081,,Pitton,,,,
,node,-4.2607,50.4842,,St. Dominick,,,,
,node,-0.0031,51.9656,,Wyddial,,,,
,node,-3.4412,54.3792,,Drigg,,,,
,node,-2.5709,54.2369,,Barbon,,,,
,node,-2.3183,50.7481,,Burleston,,,,
,node,-2.0192,52.2468,,Stock,,,,
,node,1.1917,52.4206,,Tivetshall St. Mary,,,,
,node,-2.66,51.06,,The Charltons,,,,
,node,-2.7774,53.6124,,Bispham,,,,
,node,0.699,52.2846,,Fornham St. Genevieve,,,,
,node,-0.8254,53.0512,,Hawton,,,,
,node,-2.57,51.1,,West Bradley (DET),,,,
,node,-2.3936,51.8919,,Taynton,,,,
,node,-5.0052,50.2407,,St. Michael Penkevil,,,,
,node,0.2738,52.6514,,Marshland St. James,,,,
,node,-2.1113,53.0769,,Endon,,,,
,node,-1.614,53.033,,Biggin,,,,
,node,-1.3484,53.6535,,Hessle,,,,
,node,-3.3869,54.7598,,Hayton,,,,
,node,-2.8697,53.1861,,Great Boughton,,,,
,node,-1.4869,52.2002,,Lighthorne Heath,,,,
,node,-1.9051,54.8753,,Shotley Low Quarter,,,,
,node,1.2429,52.1262,,Clopton,,,,
,node,-2.8036,51.9831,,St. Devereux,,,,
,node,-2.5056,51.8036,,Ruspidge,,,,
,node,-1.8213,54.5939,,Raby with Keverstone,,,,
,node,-1.5714,52.0288,,Stourton,,,,
,node,-3.0158,51.9199,,Crucorney,,,,
,node,-0.9047,52.6438,,Tilton on the Hill,,,,
,node,-3.7062,50.5071,,Woodland,,,,
,node,-0.9389,52.7522,,Kirby Bellars,,,,
,node,-2.0002,51.6561,,Poole Keynes,,,,
,node,-1.6537,51.7376,,Filkins,,,,
,node,-3.3534,54.5055,,Ennerdale,,,,
,node,-1.3389,51.2826,,Litchfield,,,,
,node,-4.36,50.65,,St. Stephens By Launceston Rural,,,,
,node,-1.5534,52.1624,,Combrook,,,,
,node,-3.9187,52.5344,,Ysgubor-y-Coed,,,,
,node,-1.6123,51.705,,Grafton,,,,
,node,-2.825962,53.29402,,Elton,,,,
,node,-2.5016,50.6957,,Winterborne St. Martin,,,,
,node,0.5925,51.4747,,St. Mary Hoo,,,,
,node,-2.036769,50.890627,,Crichel,,,,
,node,-0.9383,54.0178,,Sand Hutton,,,,
,node,-0.9251,51.5009,,Binfield Heath,,,,
,node,-0.7457,54.1849,,Marishes,,,,
,node,-3.3153,52.6118,,Manafon,,,,
,node,-1.2667,54.2,,Thirkleby High,,,,
,node,-2.927,50.9011,,Knowle St. Giles,,,,
,node,0.2838,51.929,,Chickney,,,,
,node,1.3353,52.6773,,Beeston St. Andrew,,,,
,node,-1.9911,50.8487,,Hinton,,,,
,node,-3.5151,52.3578,,St. Harmon,,,,
,node,-3.2908,54.4508,,Wasdale,,,,
,node,-2.05,53.51,,Mossley,,,,
,node,-3.2302,51.4565,,Michaelston,,,,
,node,-1.459896,53.428577,,Firth Park,,,,
,node,-0.42,52.7404,,Toft with Lound,,,,
,node,1.5015,52.8416,,Walcott,,,,
,node,-2.568,54.1845,,Burrow-with-Burrow,,,,
,node,-3.2372,52.5434,,Abermule with Llandyssil,,,,
,node,-1.392367,53.707157,,Normanton,,,,
,node,-1.5145,53.1186,,Dethick,,,,
,node,-3.0902,54.2651,,Lowick,,,,
,node,1.4588,52.4088,,St. Margaret,,,,
,node,-0.521,54.2348,,Wykeham,,,,
,node,-0.8139,52.3755,,Mawsley,,,,
,node,-1.6041,51.1766,,Grateley,,,,
,node,-4.6495,50.6941,,St. Juliot,,,,
,node,-1.7769,51.7626,,Coln St. Aldwyns,,,,
,node,-0.7563,52.9036,,Woolsthorpe By Belvoir,,,,
,node,-3.3859,53.0526,,Derwen,,,,
,node,-1.9789,54.3339,,Castle Bolton with East,,,,
,node,-0.267,52.2645,,Southoe,,,,
,node,-0.82,52.04,,Whitehouse,,,,
,node,-1.4795,51.5852,,Childrey,,,,
,node,0.453,51.1898,,Collier Street,,,,
,node,-0.8541,52.8714,,Stathern,,,,
,node,-1.9092,54.5265,,Egglestone Abbey,,,,
,node,-1.7,51.3391,,Easton,,,,
,node,-1.2814,53.4841,,Denaby,,,,
,node,-5.4288,50.1307,,St. Hilary,,,,
,node,-0.9715,52.7536,,Frisby on the Wreake,,,,
,node,0.8007,51.2846,,Newnham,,,,
,node,-2.7401,52.2711,,Eye,,,,
,node,-1.0615,53.2724,,Clumber,,,,
,node,-4.743,50.5215,,St. Mabyn,,,,
,node,-2.0383,50.5969,,Worth Matravers,,,,
,node,-0.9082,54.3749,,Rosedale East Side,,,,
,node,-2.7233,51.7453,,Trellech United,,,,
,node,-2.1375,52.7745,,Coppenhall,,,,
,node,1.0427,52.9526,,Cley Next the Sea,,,,
,node,-2.6507,54.7136,,Hunsonby,,,,
,node,-2.5676,50.8228,,Frome St. Quintin,,,,
,node,-1.6391,54.644,,Eldon,,,,
,node,0.6659,51.9998,,Wickham St. Paul,,,,
,node,-1.7133,53.3303,,Brough,,,,
,node,-1.1617,52.31,,Ashby St. Ledgers,,,,
,node,1.4341,52.5573,,Thurton,,,,
,node,-0.5223,52.4259,,Aldwincle,,,,
,node,-1.1863,52.0285,,Hinton-in-the-Hedges,,,,
,node,-0.41,52.3697,,Brington,,,,
,node,-4.4057,52.0907,,Troedyraur,,,,
,node,-2.8248,50.9092,,Hinton St. George,,,,
,node,-0.6228,54.4573,,Sneaton,,,,
,node,-3.0463,52.1952,,Kington Rural,,,,
,node,0.8287,51.7059,,St. Lawrence,,,,
,node,-2.5306,52.1034,,Eggleton,,,,
,node,-1.2985,52.0632,,Overthorpe,,,,
,node,-2.5749,52.4308,,Wheathill,,,,
,node,-3.9244,50.9714,,Chittlehamholt,,,,
,node,-2.0249,53.2328,,Macclesfield Forest,,,,
,node,-4.9306,51.7631,,Hook,,,,
,node,-2.776,54.6343,,Sockbridge,,,,
,node,-1.8794,54.6281,,Lynesack,,,,
,node,-1.7635,52.2205,,Wilmcote,,,,
,node,1.2534,52.4272,,Pulham St. Mary,,,,
,node,-0.3898,52.6848,,Barholm,,,,
,node,-1.6551,54.5904,,Houghton Le Side,,,,
,node,1.5922,52.4254,,Ellough,,,,
,node,-4.539,50.436,,St. Pinnock,,,,
,node,-2.8702,53.1012,,Churton,,,,
,node,-2.1319,51.8321,,Great Witcombe,,,,
,node,-4.2588,50.8908,,Newton St. Petrock,,,,
,node,-2.8641,50.7325,,Stanton St. Gabriel,,,,
,node,-0.8983,54.1025,,Welburn,,,,
,node,-1.7302,52.9811,,Edlaston,,,,
,node,-5.0446,51.9886,,Pencaer,,,,
,node,-4.0682,51.628,,Three Crosses,,,,
,node,-2.2064,54.6642,,Forest,,,,
,node,-1.281,52.1533,,Aston Le Walls,,,,
,node,-1.719,51.7536,,Eastleach,,,,
,node,-0.03,50.91,,St. John (Without),,,,
,node,-4.7447,50.6061,,St. Teath,,,,
,node,-0.1423,53.3567,,Gayton Le Wold,,,,
,node,-4.5587,50.6337,,St. Clether,,,,
,node,-0.1941,53.4429,,Brookenby,,,,
,node,-1.5942,51.8069,,Swinbrook,,,,
,node,-1.9099,51.079,,Burcombe Without,,,,
,node,-3.3986,51.4828,,Welsh St. Donats,,,,
,node,-1.1419,52.4725,,Kimcote,,,,
,node,-0.7762,51.1377,,Churt,,,,
,node,0.3591,52.0775,,Shudy Camps,,,,
,node,-1.5355,53.0434,,Shottle,,,,
,node,-0.6883,53.1947,,Eagle,,,,
,node,-3.4169,52.2854,,Nantmel,,,,
,node,-1.3107,50.6526,,Chillerton,,,,
,node,-4.363,50.3856,,Deviock,,,,
,node,-3.2952,50.701,,Newton Poppleford,,,,
,node,-3.5805,51.4843,,Ewenny,,,,
,node,-0.842457,52.238719,,Northampton,,,,
,node,-2.854,51.9602,,Kenderchurch,,,,
,node,0.9116,51.829,,Langenhoe,,,,
,node,-2.8066,52.2854,,Croft,,,,
,node,-0.836,54.3548,,Hartoft,,,,
,node,-1.825065,50.754643,,Holdenhurst Village,,,,
,node,-2.994,50.9008,,Combe St. Nicholas,,,,
,node,-1.0325,50.994,,East Meon,,,,
,node,-1.1576,51.7833,,Stanton St. John,,,,
,node,-1.0028,51.9122,,Calvert Green,,,,
,node,-2.0656,51.9815,,Oxenton,,,,
,node,-1.3017,53.8426,,Lead,,,,
,node,-2.6723,52.8241,,Moreton Corbet,,,,
,node,-3.4948,51.1689,,Timberscombe,,,,
,node,-1.9816,52.1781,,Rous Lench,,,,
,node,-0.4098,52.2253,,Bolnhurst,,,,
,node,1.742,52.515,,Corton,,,,
,node,-2.9891,53.5623,,Downholland,,,,
,node,-2.065,51.5781,,Lea,,,,
,node,-1.8709,52.1239,,North,,,,
,node,-0.5002,52.7313,,Careby Aunby,,,,
,node,-0.8136,54.1821,,Habton,,,,
,node,-0.8784,52.7304,,Burton,,,,
,node,-2.6117,54.1789,,Whittington,,,,
,node,-1.89,51.6,,Braydon,,,,
,node,-1.7012,53.3978,,Derwent,,,,
,node,0.14,53.3354,,Gayton Le Marsh,,,,
,node,-1.9433,50.923,,Wimborne St. Giles,,,,
,node,-2.492,52.0651,,Munsley,,,,
,node,-0.9823,53.0069,,Caythorpe,,,,
,node,-6.2748,49.9615,,St. Martin's,,,,
,node,-0.4937,52.2762,,Melchbourne,,,,
,node,-0.115,52.3303,,Houghton,,,,
,node,-0.5396,50.8461,,Crossbush,,,,
,node,-2.49,53.84,,Bailey and Chaigley,,,,
,node,-2.4465,52.6498,,Brookside,,,,
,node,-2.02,52.34,,Cobley,,,,
,node,-2.99,53.3,,Thornton,,,,
,node,-3.9224,55.7732,,Wishaw,,,,
,node,0.67,51.93,,Halstead Rural,,,,
,node,-1.842026,51.54186,,Wichelstowe,,,,
,node,1.0468,52.6352,,Runhall and Welborne,,,,
,node,-1.7921,52.6906,,Streethay,,,,
,node,-1.1817,52.6927,,Cropston,,,,
,node,-2.0945,52.8675,,Burston,,,,
,node,-2.73,53.04,,District,,,,
,node,-1.3341,52.8826,,Church Wilne,,,,
,node,-1.3871,53.6472,,Nostell,,,,
,node,1.2424,52.591,,Intwood,,,,
,node,-4.49,55.84,,Crosslee & Linwood,,,,
,node,-2.6619,51.5618,,Severn Beach,,,,
,node,-1.5901,55.2142,,Linton,,,,
,node,-0.49,52.28,,Yielden,,,,
,node,-0.4381,50.9073,,Sullington,,,,
,node,-0.03,53.04,,Westville,,,,
,node,-2.4959,53.5752,,Lostock,,,,
,node,-2.2993,51.619,,Tresham,,,,
,node,1.49,52.62,,Burlingham,,,,
,node,-2.5837,53.2215,,Marton,,,,
,node,1.1786,52.3572,,Oakley,,,,
,node,-2.2306,52.4188,,Cookley,,,,
,node,-1.016,53.6681,,Cowick,,,,
,node,-2.52,57.66,,District,,,,
,node,0.2008,50.7636,,Friston,,,,
,node,-1.3808,53.7147,,Whitwood,,,,
,node,0.5611,51.1101,,Sissinghurst,,,,
,node,-2.46,57.54,,District,,,,
,node,-2.4338,52.664,,Randlay,,,,
,node,-2.825,52.8944,,Lyneal,,,,
,node,-4.3821,55.8482,,Ralston,,,,
,node,-2.731,53.1483,,Huxley,,,,
,node,1.2534,51.9434,,Parkeston,,,,
,node,-3.6277,51.063,,Hawkridge,,,,
,node,-1.8886,54.5618,,Stainton,,,,
,node,-3.233297,54.712857,,Snittlegarth,,,,
,node,-2.88,56.65,,District,,,,
,node,-1.29,54.2,,Low with Osgodby,,,,
,node,-0.3075,53.0005,,Howell,,,,
,node,-2.7448,53.854,,Bilsborrow,,,,
,node,0.0808,52.2674,,Westwick,,,,
,node,-2.2892,52.6949,,Weston-under-Lizard,,,,
,node,-2.497,53.4701,,Glazebury,,,,
,node,-2.4637,53.1667,,Wimboldsley,,,,
,node,-1.2,51.77,,Stowood,,,,
,node,-2.0137,52.3489,,Blackwell,,,,
,node,-1.724754,53.154123,,Smerrill,,,,
,node,-1.319,52.6687,,Thornton,,,,
,node,-2.3081,52.3219,,Dunley,,,,
,node,-0.5025,52.7677,,Creeton,,,,
,node,-4.5536,55.8362,,Kilbarchan & Lochwinnoch,,,,
,node,-1.5,53.71,,Outwood,,,,
,node,-2.01,57.69,,District,,,,
,node,-1.646314,54.351371,,West,,,,
,node,-1.2,54.55,,Beckfield,,,,
,node,-0.6324,52.9293,,Manthorpe,,,,
,node,-2.28,57.15,,District,,,,
,node,-3.739,50.3625,,Moreleigh,,,,
,node,-2.75,53.13,,District,,,,
,node,-2.4423,51.9278,,Kilcot,,,,
,node,-2.4207,53.7006,,Pickup Bank,,,,
,node,-4.6667,55.25,,South Carrick,,,,
,node,-3.63,53.29,,Rhyd-y-Foel,,,,
,node,-1.9522,50.9602,,Pentridge,,,,
,node,-0.26,52.54,,Vale,,,,
,node,-2.7005,52.2057,,Stoke Prior,,,,
,node,-2.08,52.81,,Coton,,,,
,node,-5.26,51.88,,the Cathedral Close,,,,
,node,-2.7398,54.6481,,Eamont Bridge,,,,
,node,1.163,52.4043,,Shimpling,,,,
,node,-2.0257,53.2162,,Wildboarclough,,,,
,node,-4.69,55.35,,North Carrick and Coylton,,,,
,node,-0.752425,53.633122,,Haldenby,,,,
,node,-1.761,51.5442,,Lawn,,,,
,node,1.1397,52.8295,,Saxthorpe,,,,
,node,-0.985937,51.063849,,Priors Dean,,,,
,node,-2.941899,53.204999,,Mollington,,,,
,node,1.1549,51.3574,,Broomfield,,,,
,node,-2.2016,51.7309,,Thrupp,,,,
,node,-1.9986,51.513,,Bradenstoke,,,,
,node,-0.8572,53.3623,,South Wheatley,,,,
,node,-1.6422,55.2699,,West Chevington,,,,
,node,-1.4277,53.8261,,Scholes,,,,
,node,-2.46,50.61,,Portland,,,,
,node,-2.1542,53.5965,,Kirkholt,,,,
,node,-2.86,53.21,,District,,,,
,node,-2.9445,50.8587,,Forton,,,,
,node,-2.604591,52.229062,,Newhampton,,,,
,node,-3.9485,56.1554,,Bridge of Allan,,,,
,node,-1.5,51.0167,,Timsbury,,,,
,node,-6.11,55.85,,the Islands,,,,
,node,-3.1603,51.7645,,Blaina,,,,
,node,-1.378,51.2921,,Woodcott,,,,
,node,-1.33,52.7,,Battleflat,,,,
,node,-2.4574,52.7129,,Trench,,,,
,node,-3.34,56.59,,Glens,,,,
,node,-1.6054,50.9731,,Plaitford,,,,
,node,-2.681616,52.593496,,Langley,,,,
,node,-3.0773,52.7926,,Pant,,,,
,node,-2.16,53.61,,Deeplish,,,,
,node,-4.34,56.07,,Endrick,,,,
,node,-4.996,52.0044,,Goodwick,,,,
,node,-1.3262,51.0224,,Shawford,,,,
,node,-1.18,53.28,,Belph,,,,
,node,-3.3,58.96,,South Isles,,,,
,node,-0.3351,52.4186,,Steeple Gidding,,,,
,node,-2.925,52.3635,,Coxall,,,,
,node,1.2053,52.5239,,Hapton,,,,
,node,-2.6549,56.8095,,Edzell,,,,
,node,-1.5645,54.7239,,Hett,,,,
,node,-1.7856,51.5816,,Pinehurst,,,,
,node,-3.7,55.83,,the Breich Valley,,,,
,node,1.411661,52.376253,,South Elmham,,,,
,node,-1.710883,54.746818,,Byshottles,,,,
,node,-2.13,53.63,,West Littleborough,,,,
,node,-1.3118,50.6655,,Gatcombe,,,,
,node,-4.2706,55.7954,,Stamperland and Williamwood,,,,
,node,-1.8345,52.7079,,Elmhurst,,,,
,node,-1.73,53.06,,Lea Hall,,,,
,node,-2.81,55.62,,District,,,,
,node,-3.04,57.05,,Upper Deeside and Donside,,,,
,node,0.27,51.19,,Malling,,,,
,node,-1.5913,54.8249,,Plawsworth,,,,
,node,-4.8573,55.6948,,West Kilbride,,,,
,node,-0.485,52.3079,,Shelton,,,,
,node,-3.7683,55.8834,,Blackridge,,,,
,node,0.46,51.57,,Billericay,,,,
,node,-4.0823,55.8171,,Uddingston,,,,
,node,1.42664,52.389778,,St. Nicholas,,,,
,node,-1.0025,52.8066,,Old Dalby,,,,
,node,-1.2636,51.8046,,Water Eaton,,,,
,node,-0.5,53.2,,Mere,,,,
,node,-3.112709,54.28676,,Subberthwaite,,,,
,node,-1.3699,51.6852,,Tubney,,,,
,node,-0.89,52.73,,Dalby,,,,
,node,-0.27,52.26,,Midloe,,,,
,node,-1.896391,54.684626,,Softley,,,,
,node,-1.9732,54.9487,,Riding,,,,
,node,-0.4701,52.9116,,Haceby,,,,
,node,-2.4409,51.3336,,Tunley,,,,
,node,-0.4251,52.2555,,Keysoe,,,,
,node,-4.9361,51.7794,,Boulston and Slebech,,,,
,node,-1.6619,51.7329,,Broughton Poggs,,,,
,node,-1.7941,53.7267,,Lightcliffe,,,,
,node,-1.444946,54.563263,,West Newbiggin,,,,
,node,-4.21,55.83,,Hamilton,,,,
,node,-1.54,53.02,,Postern,,,,
,node,-1.86,52.7,,Chorley,,,,
,node,-1.2944,50.9539,,Horton Heath,,,,
,node,0.2818,51.4507,,Greenhithe,,,,
,node,-1.892091,53.127364,,Elkstones,,,,
,node,-0.688,52.4613,,Little Oakley,,,,
,node,-2.51,51.49,,Bromley Heath,,,,
,node,-1.4655,53.2174,,Walton,,,,
,node,-1.8139,51.562,,Western,,,,
,node,-3.0935,52.6265,,Trelystan,,,,
,node,-1.1579,54.2445,,Scawton,,,,
,node,-2.86,53.81,,Roseacre and Wharles,,,,
,node,-1.49,51.86,,Wychwood,,,,
,node,-3.49,56.39,,Earn,,,,
,node,-1.762,53.0934,,Alsop,,,,
,node,-3.2885,50.7052,,Harpford,,,,
,node,-0.6386,53.0601,,Stragglethorpe,,,,
,node,-1.85264,54.917327,,Rowlands Gill,,,,
,node,-2.19,53.93,,Brogden,,,,
,node,-2.71,52.28,,Moreton and Ashton,,,,
,node,-1.63,52.82,,Eton,,,,
,node,-3.523,56.0031,,Blackness,,,,
,node,-2.79,57.45,,Strathbogie and Howe of Alford,,,,
,node,-0.2015,52.2811,,Offord D'Arcy,,,,
,node,-2.157625,51.362955,,Melksham Without,,,,
,node,-1.4314,52.4592,,Barnacle,,,,
,node,-0.3802,53.9926,,Wansford,,,,
,node,-1.3844,52.9767,,Stanley Common,,,,
,node,-2.7684,54.6324,,Tirril,,,,
,node,-1.3288,52.8168,,Diseworth,,,,
,node,-0.9093,53.329,,Welham,,,,
,node,-4.0032,51.9197,,Salem,,,,
,node,-1.4278,50.8665,,Dibden,,,,
,node,1.2289,52.3986,,Rushall,,,,
,node,-3.1986,54.1885,,Ireleth,,,,
,node,-1.7012,53.7256,,Spen,,,,
,node,-1.3983,54.0288,,Clareton,,,,
,node,-3.2342,51.588,,Energlyn,,,,
,node,-4.089301,50.386593,,Lipson,,,,
,node,-2.22,56.97,,Lower Deeside,,,,
,node,-2.6679,51.7072,,Brockweir,,,,
,node,-2.413,53.5114,,Ellenbrook,,,,
,node,-1.3762,52.9087,,Borrowash,,,,
,node,1.0474,51.2916,,Rough Common,,,,
,node,-1.0368,51.0381,,Privett,,,,
,node,-0.74,51.22,,Sands,,,,
,node,-0.427,52.3705,,Molesworth,,,,
,node,-0.4,52.68,,Stowe,,,,
,node,-2.718,54.3845,,Selside,,,,
,node,-2.6901,52.0835,,Shelwick,,,,
,node,-2.2838,52.9355,,Hill Chorlton,,,,
,node,-3.137,53.3726,,Frankby and Irby,,,,
,node,-2.3347,51.908,,Highleadon,,,,
,node,-2.6937,51.4391,,Failand,,,,
,node,-2.536,51.0199,,Sutton Montis,,,,
,node,-3.918,51.0661,,West Buckland,,,,
,node,-1.53,54.9,,Sunderland,,,,
,node,-0.6012,52.1924,,Chellington,,,,
,node,-1.77,50.87,,Harbridge and Ibsley,,,,
,node,-2.384,51.4906,,Hinton,,,,
,node,-0.0325,51.3246,,Farleigh,,,,
,node,0.282,53.3128,,Sutton,,,,
,node,-0.2707,51.6605,,Borehamwood,,,,
,node,-3.1761,56.069,,Kinghorn and Western Kirkcaldy,,,,
,node,-0.4427,52.9526,,Swarby,,,,
,node,-2.82,56.19,,Landward,,,,
,node,-5.0859,51.8464,,Roch,,,,
,node,1.2674,51.8482,,Walton,,,,
,node,-2.7906,53.2642,,Hapsford,,,,
,node,-3.0291,53.2586,,Burton,,,,
,node,-2.1367,52.658,,Coven,,,,
,node,-3.44,54.38,,Carleton,,,,
,node,-1.7189,52.9792,,Wyaston,,,,
,node,1.1175,52.6447,,Colton,,,,
,node,1.28,52.69,,Newton St. Faith,,,,
,node,-1.7069,53.3132,,Abney Grange,,,,
,node,-3.0401,52.896,,Gobowen,,,,
,node,-1.216836,54.217576,,Low,,,,
,node,-3.9967,51.6824,,Tircoed,,,,
,node,-1.3002,53.5933,,Moorthorpe,,,,
,node,-1.4663,52.4793,,Bedworth,,,,
,node,-0.8542,51.4566,,Hurst,,,,
,node,-0.3983,52.8723,,Laughton,,,,
,node,-2.26,52.59,,Patshull,,,,
,node,-0.9984,51.2629,,Up Nately,,,,
,node,-0.4658,52.0025,,Greenfield,,,,
,node,-1.0416,52.6297,,Bushby,,,,
,node,-1.31,53.73,,Ferry Fryston,,,,
,node,-1.44,54.87,,Sunderland,,,,
,node,-1.1264,53.9367,,Woodthorpe,,,,
,node,-1.25417,54.52436,,Thornton,,,,
,node,-1.5616,50.7542,,Pennington,,,,
,node,-4.7051,50.3494,,Par,,,,
,node,0.32,51.69,,Hook End and Wyatts Green,,,,
,node,-0.4518,52.9261,,Dembleby,,,,
,node,-2.564387,51.536197,,The Common,,,,
,node,-0.520481,54.400788,,Hawsker-cum-Stainsacre,,,,
,node,-0.4851,52.8933,,Sapperton,,,,
,node,-2.7803,55.2532,,Hermitage,,,,
,node,-2.1041,53.0684,,Stanley,,,,
,node,0.4907,51.8229,,Little Leighs,,,,
,node,-0.9365,54.5689,,Brotton,,,,
,node,-0.7294,52.1258,,Filgrave,,,,
,node,-1.72,52.17,,Milcote,,,,
,node,0.9105,52.4697,,Larling,,,,
,node,-2.5928,52.6824,,Uppington,,,,
,node,1.0388,51.3129,,St. Damian in the Blean,,,,
,node,-0.8163,53.5966,,Ealand,,,,
,node,-3.6637,50.4892,,Torbryan,,,,
,node,0.4304,51.615,,South Green,,,,
,node,-1.73,53,,Compton,,,,
,node,-1.1394,51.7185,,Denton,,,,
,node,-1.7021,54.0199,,Menwith,,,,
,node,-1.95,54.32,,West Bolton,,,,
,node,-0.6546,52.7953,,Stainby,,,,
,node,-1.1541,53.2355,,Cuckney,,,,
,node,-0.8003,51.0718,,Liphook,,,,
,node,-1.879,53.6719,,Stainland,,,,
,node,-4.1459,55.9352,,Kirkintilloch,,,,
,node,-3.2921,52.5236,,Llanllwchaiarn,,,,
,node,-3.511,55.9302,,Uphall and Winchburgh,,,,
,node,-0.9911,53.2073,,Boughton,,,,
,node,-5.2405,55.5723,,Arran,,,,
,node,-1.5843,52.1763,,Walton,,,,
,node,-2.67,52.8407,,Lee Brockhurst,,,,
,node,-3.12,56.28,,Tay Coast,,,,
,node,-4.7544,55.6401,,Stevenston,,,,
,node,-4.65,55.96,,Lomond,,,,
,node,-1.172,50.6994,,Ashey,,,,
,node,-3.3904,53.3183,,Gwaenysgor,,,,
,node,-1.2014,51.0814,,Ovington,,,,
,node,-4.1526,55.9393,,Kirkintilloch,,,,
,node,-0.25,52.55,,Hempsted,,,,
,node,-1.0196,54.5915,,Marske and New Marske,,,,
,node,-2.0719,53.5898,,Crompton,,,,
,node,-5.03,54.9,,North Rhins,,,,
,node,-1.4854,50.9125,,Eling,,,,
,node,-0.87,52.6,,Keythorpe,,,,
,node,-1.56,52.32,,Guy's Cliffe,,,,
,node,-1.6054,53.1828,,Tinkersley,,,,
,node,0.2166,50.792,,Jevington,,,,
,node,-5.0152,51.6448,,Castlemartin,,,,
,node,-2.9742,53.2354,,Shotwick Park,,,,
,node,-4.5833,55.85,,Bridge of Weir & Langbank,,,,
,node,-3.1325,53.3484,,Thurstaston,,,,
,node,0.5308,51.3598,,Wayfield,,,,
,node,-1.9849,53.9061,,Cross Hills,,,,
,node,-2.1465,52.1261,,Wadborough,,,,
,node,-2.29,53.7,,Darwen,,,,
,node,-2.48,57.06,,Mid Deeside,,,,
,node,1.405125,52.405605,,South Elmham,,,,
,node,-2.9409,55.9632,,"Seton,Gosford",,,,
,node,-2.6415,53.1854,,Cotebrook,,,,
,node,-2.0961,53.4267,,Woodley,,,,
,node,1.2774,52.4861,,Fritton,,,,
,node,-0.3649,53.0138,,Evedon,,,,
,node,1.378675,52.403632,,South Elmham,,,,
,node,-1.95,52.1246,,Lenchwick,,,,
,node,-1.77,51.56,,Park,,,,
,node,-1.2855,52.2597,,Lower Shuckburgh,,,,
,node,-1.7,54.45,,Sedbury,,,,
,node,-1.55,53.66,,South Ossett,,,,
,node,-1.3489,52.3257,,Draycote,,,,
,node,-1.366159,51.990678,,St. Michael,,,,
,node,-2.77,54.33,,Bradleyfield,,,,
,node,1.5274,52.5683,,Limpenhoe and Southwood,,,,
,node,-0.8592,52.7746,,Thorpe Arnold,,,,
,node,-1.1215,52.4786,,Walton,,,,
,node,-2.0961,53.4141,,Romiley,,,,
,node,-1.5436,51.3201,,Fosbury,,,,
,node,-2.8167,52.2,,Stretford,,,,
,node,0.4989,51.4337,,Cliffe Woods,,,,
,node,-1.6809,51.0639,,Farley,,,,
,node,-1.6608,53.549,,Ingbirchworth,,,,
,node,-3.93,54.94,,Glenkens,,,,
,node,-2.07,57.37,,District,,,,
,node,-2.03,52.12,,Moor,,,,
,node,-2.4154,51.0016,,Templecombe,,,,
,node,-1.1869,53.5825,,Carcroft,,,,
,node,-3.5422,53.3007,,Towyn,,,,
,node,-0.8806,51.7966,,Upton,,,,
,node,-1.5376,52.7236,,Donisthorpe,,,,
,node,-3.402594,54.761285,,Mealo,,,,
,node,-2.1264,53.6164,,Firgrove,,,,
,node,-0.4422,54.3039,,Scalby,,,,
,node,-2.05,52.37,,North Marlbrook,,,,
,node,-2.7422,53.7872,,Tanterton,,,,
,node,-2.821,57.6917,,Cullen,,,,
,node,-0.4685,52.3662,,Keyston,,,,
,node,-1.78,51.59,,Upper Stratton,,,,
,node,-0.65,53.6,,Park,,,,
,node,-2.55,53.38,,Thelwall,,,,
,node,-0.34,52.87,,Sempringham,,,,
,node,-2.7504,50.9168,,Middle Chinnock,,,,
,node,-1.511395,53.335069,,Greenhill,,,,
,node,-2.2592,53.5057,,Broughton,,,,
,node,-1.7438,55.3239,,Swarland,,,,
,node,1.2974,52.7973,,Tuttington,,,,
,node,-3.0492,56.2108,,Kennoway and Largo,,,,
,node,-4.87,55.79,,Cumbraes,,,,
,node,-3.311,54.7419,,Threapland,,,,
,node,-4.4357,55.8918,,Inchinnan,,,,
,node,-4.3151,56.9915,,Strathspey,,,,
,node,-0.167172,52.419884,,the Raveleys,,,,
,node,-1.4101,54.5986,,Whitton,,,,
,node,-1.5043,53.7097,,Outwood,,,,
,node,-0.1302,52.3346,,Wyton,,,,
,node,-1.1156,50.7191,,Seaview,,,,
,node,-0.2571,52.5635,,Woodston,,,,
,node,-1.7384,52.642,,Hopwas,,,,
,node,-0.7005,52.0359,,Monkston and Brinklow,,,,
,node,-2.4757,52.6861,,Overdale,,,,
,node,-2.1688,57.177,,"Bucksburn,Danestone",,,,
,node,-3.849,52.7856,,Llanfachreth,,,,
,node,-4.42,55.85,,Gallowhill,,,,
,node,-4.2,56.24,,Teith,,,,
,node,-0.66,51.94,,Reach,,,,
,node,-2.7017,51.482,,Easton-in-Gordano,,,,
,node,-5.4298,57.4226,,Strathpeffer and Lochalsh,,,,
,node,-2.72,52.1,,Lyde,,,,
,node,-2.77,55.96,,Lammermuir,,,,
,node,-0.2879,52.4057,,Coppingford,,,,
,node,-2.95,53.28,,Manor,,,,
,node,-3.9333,57.75,,Easter Ross,,,,
,node,-1.1834,51.7644,,Sandhills,,,,
,node,-0.6489,53.1956,,Whisby,,,,
,node,0.5587,51.3557,,Capstone,,,,
,node,-1.6259,53.2475,,Bubnell,,,,
,node,-2.905082,52.334619,,Letton and Newton,,,,
,node,-3.8312,56.0219,,Larbert,,,,
,node,-4.2502,51.6858,,Burry Port,,,,
,node,-0.525808,52.89643,,Humby,,,,
,node,-0.8019,52.6836,,Cold Overton,,,,
,node,-0.1134,51.7086,,Cuffley,,,,
,node,-3.2267,51.5926,,Pwllypant,,,,
,node,-1.09021,53.55832,,Kirk Sandall,,,,
,node,-0.8221,52.0531,,Greenleys,,,,
,node,-1.52,53.11,,Lea and Holloway,,,,
,node,-0.7323,53.0107,,Dry Doddington,,,,
,node,-0.91,51.55,,Assendon,,,,
,node,-1.6971,53.3388,,Shatton,,,,
,node,-2.72,55.5976,,Melrose,,,,
,node,-0.3123,52.3557,,Woolley,,,,
,node,-2.2497,50.7268,,Turnerspuddle,,,,
,node,-1.4116,53.7331,,Methley,,,,
,node,-4.4563,50.4131,,Trewidland,,,,
,node,-2.1003,53.6018,,Newhey,,,,
,node,0.4745,50.9856,,Robertsbridge,,,,
,node,-0.5572,52.2451,,Souldrop,,,,
,node,-2.4964,52.7763,,Cherrington,,,,
,node,-1.8143,53.6143,,Netherton,,,,
,node,-1.5491,54.2971,,Leeming and Newton,,,,
,node,0.326,51.3958,,New Barn,,,,
,node,-1.16,54.45,,Little Broughton,,,,
,node,-0.181,51.0387,,Staplefield,,,,
,node,-1.5884,51.6958,,Radcot,,,,
,node,-2.497234,52.223585,,Saltmarshe,,,,
,node,-2.4225,52.7255,,Muxton,,,,
,node,1.2415,52.8663,,Thurgarton,,,,
,node,0.4773,51.5285,,Fobbing,,,,
,node,-2.18,53.62,,Falinge,,,,
,node,-4.0365,57.5676,,Ardersier,,,,
,node,1.18,51.28,,Well,,,,
,node,-0.9166,52.6982,,Thorpe,,,,
,node,-3.1406,51.5963,,Machen,,,,
,node,-1.7256,51.5548,,Dorcan,,,,
,node,-3.146,56.1663,,Thornton,,,,
,node,-1.5447,53.9591,,Burn Bridge,,,,
,node,-2.7799,52.2797,,Yarpole,,,,
,node,-3.01,56.67,,Dean,,,,
,node,-1.23,52.41,,Biggin,,,,
,node,-1.51,52.22,,Kingston,,,,
,node,-2.43,55.6,,District,,,,
,node,-1.3357,53.0206,,Langley Mill,,,,
,node,-2.236,52.5519,,Seisdon,,,,
,node,-2.8797,53.1564,,Eccleston,,,,
,node,1.44,52.42,,Ilketshall,,,,
,node,-3.319273,54.882173,,Holme Low and Holme St. Cuthbert,,,,
,node,1.486358,52.411536,,Ilketshall,,,,
,node,-2.54,53.58,,Blackrod,,,,
,node,-1.3038,51.839,,Thrupp,,,,
,node,-1.4582,50.9485,,Rownhams,,,,
,node,-1.1059,52.5863,,Wigston,,,,
,node,-2.4219,52.6905,,Priorslee,,,,
,node,-2.55,55.48,,District,,,,
,node,-3.98,55.96,,Kildrum and the Village,,,,
,node,1.432122,52.413446,,South Elmham,,,,
,node,1.5,52.4333,,Ilketshall,,,,
,node,-0.913106,53.183875,,Moorhouse,,,,
,node,-1.09,50.87,,Widley,,,,
,node,-2.85,54.31,,Lyth,,,,
,node,-2.1499,53.9065,,Sough,,,,
,node,-3.018898,50.774819,,Kilmington,,,,
,node,-1.130079,52.124994,,Weedon,,,,
,node,-2.4979,52.7086,,Leegomery,,,,
,node,-1.606133,54.538748,,Faverdale,,,,
,node,-3.2436,54.7459,,Torpenhow,,,,
,node,-1.6267,55.2448,,Stobswood,,,,
,node,-2.723,53.0178,,Macefen and Bradley,,,,
,node,-2.9664,53.1675,,Bretton,,,,
,node,0.6015,51.3643,,Rainham,,,,
,node,-2.3375,53.4841,,Eccles,,,,
,node,-2.3184,53.4245,,Sale,,,,
,node,-4.2765,55.7859,,Clarkston and Eaglesham,,,,
,node,-2.47,56.71,,District,,,,
,node,0.2217,51.0054,,Five Ashes,,,,
,node,0.3233,51.7661,,Berners Roding,,,,
,node,-1.5168,52.8667,,Stenson,,,,
,node,-1.896391,54.684626,,and South Bedburn,,,,
,node,-0.855,51.8054,,Hartwell,,,,
,node,1.36,52.42,,South Elmham Otherwise Homersfield,,,,
,node,-2.3442,51.7966,,Epney,,,,
,node,-1.4,53.2,,Hasland and Winswick,,,,
,node,-0.7165,51.9982,,Fenny Stratford,,,,
,node,-1.045,53.2732,,Hardwick,,,,
,node,-0.6,51.48,,Castle,,,,
,node,-3.0428,54.5068,,Wythburn,,,,
,node,-3.2167,56.2,,Leslie and Markinch,,,,
,node,-1.3695,52.3915,,Bretford,,,,
,node,-1.693898,54.24686,,Low,,,,
,node,-1.3378,53.7161,,Glasshoughton,,,,
,node,-2.0889,57.1702,,"Seaton,Old Aberdeen",,,,
,node,-0.668,51.4101,,Ascot,,,,
,node,-1.978,52.7001,,Wimblebury,,,,
,node,-0.3604,52.0369,,Chicksands,,,,
,node,-1.28,51.36,,Sydmonton and Bishops Green,,,,
,node,-2.7117,54.3427,,Scalthwaiterigg,,,,
,node,-0.9043,52.857,,Hose and Harby,,,,
,node,-1.952809,54.763351,,Wolsingham and Tow Law,,,,
,node,-2.8517,54.2162,,Meathop and Ulpha,,,,
,node,-3.7148,50.2865,,Sherford,,,,
,node,-2.458,51.6573,,Stone,,,,
,node,-1.75,51.55,,Eldene and Park,,,,
,node,-1.8407,51.5526,,Freshbrook,,,,
,node,-2.62907,52.21116,,Hampton Wafer,,,,
,node,1.6219,52.5369,,St. Olaves,,,,
,node,-1.14,52.41,,Starmore,,,,
,node,-0.3295,52.4875,,Washingley,,,,
,node,-0.6891,53.2183,,Swinethorpe,,,,
,node,-1.1516,51.8371,,Murcott,,,,
,node,0.8669,51.8009,,Little Wigborough,,,,
,node,-2.9764,51.22,,Highbridge,,,,
,node,-1.23,54.52,,Thornton,,,,
,node,-4.1076,55.9028,,Chryston and Bellshill,,,,
,node,-2.6455,53.1387,,Tilstone Fearnall,,,,
,node,-1.3724,53.0279,,Loscoe,,,,
,node,-1.8286,50.8302,,St. Ives,,,,
,node,-2.8749,50.9767,,Westport,,,,
,node,-0.18,53.19,,Woodhall,,,,
,node,-0.5669,52.8456,,Bassingthorpe,,,,
,node,-5.1,56.82,,Ardnamurchan,,,,
,node,-1.3534,53.1894,,Holmewood,,,,
,node,-2.2614,51.7516,,Westrip,,,,
,node,-0.62,52.93,,Harrowby Without,,,,
,node,0.2479,51.404,,South Darenth,,,,
,node,-2.21,54.65,,Frith,,,,
,node,-0.8259,50.9612,,Treyford,,,,
,node,-2.0674,52.4833,,Rowley Regis,,,,
,node,-4.04,51.69,,Waungron,,,,
,node,-2.64,53.42,,Westbrook,,,,
,node,-3.1676,53.4012,,Meols,,,,
,node,-2.8305,51.332,,Sandford,,,,
,node,-0.6564,52.8706,,Stroxton,,,,
,node,-2.6836,55.458,,Denholm,,,,
,node,-4.043163,50.675995,,Sourton,,,,
,node,-1.574668,53.040142,,Alton,,,,
,node,-1.8581,54.6364,,Softley,,,,
,node,-2.1563,51.0414,,Semley,,,,
,node,-0.6372,52.044,,Salford,,,,
,node,-3.1646,54.7216,,Uldale,,,,
,node,-2.64,54.31,,Holmescales,,,,
,node,-2.4281,51.4721,,Abson,,,,
,node,-0.848102,54.20507,,Little),,,,
,node,-1.641042,52.926524,,Thurvaston,,,,
,node,-0.2045,51.2048,,Sidlow,,,,
,node,1.44857,52.399206,,South Elmham,,,,
,node,-2.5942,52.653,,Eaton Constantine,,,,
,node,-3.4165,54.7425,,Allerby,,,,
,node,-3.3,57.71,,Laich,,,,
,node,-2.89,58.89,,South Ronaldsay and Burray,,,,
,node,-3.8042,53.182,,Maenan,,,,
,node,-0.385,52.7106,,Wilsthorpe,,,,
,node,-3.0867,53.3529,,Thingwall,,,,
,node,0.5436,51.5812,,North Benfleet,,,,
,node,-1.376894,52.206779,,Wills Pastures,,,,
,node,-1.2629,52.1268,,Edgcote,,,,
,node,-3.4931,54.5372,,Frizington,,,,
,node,0.3708,51.6766,,Fryerning,,,,
,node,-4,55.38,,Upper Nithsdale,,,,
,node,-1.67,54.99,,North Fenham,,,,
,node,-1.5449,53.3135,,Totley,,,,
,node,-1.2,53.59,,Askern,,,,
,node,-0.7273,52.0151,,Ashland,,,,
,node,-7.38,57.17,,Eirisgeigh agus Uibhist a Deas,,,,
,node,-2.1774,52.6989,,Stretton and Wheaton Aston,,,,
,node,-0.7926,52.0357,,Great Holm,,,,
,node,-3.9471,55.9903,,Banknock,,,,
,node,-1.8,52.67,,Packington,,,,
,node,-1.204233,54.554386,,Pallister,,,,
,node,-2.51,51.8,,Soudley,,,,
,node,-0.1596,52.1315,,Cockayne Hatley,,,,
,node,-0.83,51.64,,Wheeler End,,,,
,node,-1.36,54.36,,Stank and Hallikeld,,,,
,node,-2.6,53.48,,Lowton,,,,
,node,-4.486,55.8333,,Elderslie & Howwood,,,,
,node,-1.62,54.75,,Byshottles,,,,
,node,-3.4,52.2,,Trecoed,,,,
,node,-3.9362,50.989,,Warkleigh,,,,
,node,-1.4168,53.1267,,Higham,,,,
,node,-3.59,56.06,,Coastal Villages,,,,
,node,-3.1643,54.1836,,Marton,,,,
,node,-2.3525,53.4454,,Urmston,,,,
,node,-3.8,56.03,,Kinnaird and Tryst,,,,
,node,-1.95,53.83,,Cross Roads and Stanbury,,,,
,node,-2.0167,52.2333,,Bradley,,,,
,node,1.66144,52.525507,,Ashby and Herringfleet,,,,
,node,-2.1776,52.4062,,Blakedown,,,,
,node,-1.9142,54.9467,,Stocksfield,,,,
,node,-0.4207,51.3853,,Walton,,,,
,node,1.475455,52.436934,,Ilketshall,,,,
,node,-0.8716,52.675,,Newbold,,,,
,node,-2.834,53.1522,,Saighton,,,,
,node,-1.5059,50.896,,Colbury,,,,
,node,-0.4812,52.8407,,Osgodby,,,,
,node,-0.1986,50.9489,,Sayers Common,,,,
,node,-1.34,51.08,,Harestock,,,,
,node,-0.2245,52.5531,,Stanground,,,,
,node,-4.7292,51.7342,,Begelly,,,,
,node,-2.0377,51.5692,,Cleverton,,,,
,node,-2.816256,52.111009,,Wormsley,,,,
,node,-1.5203,53.3797,,Crosspool,,,,
,node,-1.972732,54.407004,,Fremington and Healaugh,,,,
,node,-1.74,53.02,,Underwood,,,,
,node,0.5846,51.6935,,Bicknacre,,,,
,node,-1.38,52.7082,,Donington le Heath,,,,
,node,-2.0676,52.7586,,Bednall,,,,
,node,-0.6319,54.2029,,Yedingham,,,,
,node,-2.0283,50.7407,,Upton,,,,
,node,-1.7145,52.87,,Scropton,,,,
,node,0.341,51.6043,,Ingrave,,,,
,node,-1.3589,50.9887,,North Boyatt,,,,
,node,0.2052,50.952,,Waldron,,,,
,node,-2.72,56.5,,District,,,,
,node,-1.1488,51.0449,,Hinton Ampner,,,,
,node,-3.9668,55.8225,,Holytown,,,,
,node,-0.3147,52.1913,,Chawston and Colesden,,,,
,node,-1.9,55.3,,Tosson,,,,
,node,-2.2392,51.7643,,Ruscombe,,,,
,node,-2.51,52.19,,Winslow,,,,
,node,-1.1282,50.9774,,Meonstoke,,,,
,node,-2.4478,53.8026,,Langho,,,,
,node,-1.76,52.38,,Hockley Heath,,,,
,node,-4.43,57.6,,Seaforth,,,,
,node,0.3852,52.7506,,West Norfolk,,,,
,node,0.9425,52.6471,,Westfield,,,,
,node,-4.1785,55.3927,,New Cumnock,,,,
,node,-1.37,53.79,,Swillington,,,,
,node,-0.8819,50.8533,,Hambrook,,,,
,node,-0.2512,51.3502,,Ewell,,,,
,node,0.4429,51.2995,,Larkfield,,,,
,node,-1.8881,52.1216,,Middle Littleton,,,,
,node,-3.4643,55.8949,,East Calder,,,,
,node,-0.592,52.6961,,Horn,,,,
,node,0.1768,51.9613,,Rickling,,,,
,node,-1.7517,52.4685,,Marston Green,,,,
,node,-3.6235,55.8741,,Blackburn,,,,
,node,0.632,51.2275,,Kingswood,,,,
,node,-0.7763,51.3252,,Hawley,,,,
,node,-0.9447,51.4895,,Dunsden,,,,
,node,-4.69,50.69,,Minster,,,,
,node,-1.5,54.65,,the Isle,,,,
,node,-0.91,51.42,,Newland,,,,
,node,-3.23,51.88,,District,,,,
,node,-2.79,52.81,,Broughton and Harmer Hill,,,,
,node,-1.9669,53.3361,,Buxworth and Brownside,,,,
,node,-1.77,53.83,,Wrose,,,,
,node,-0.7184,53.6629,,Fockerby,,,,
,node,-1.0566,51.2773,,Lychpit,,,,
,node,-1.2632,50.5992,,Whitwell,,,,
,node,-1.3641,50.7856,,Lepe,,,,
,node,-0.5184,52.7346,,Holywell,,,,
,node,-1.76,54.62,,Barony,,,,
,node,-3.4579,54.5122,,Kinniside,,,,
,node,-2.82,53.05,,District,,,,
,node,-0.57,51.71,,Ley Hill,,,,
,node,-0.757,52.2373,,Whiston,,,,
,node,-4.3961,51.8631,,Merthyr,,,,
,node,-1.35,53.65,,Hill Top,,,,
,node,-1.3352,52.8736,,Great Wilne,,,,
,node,-1.4116,53.7671,,Little Preston,,,,
,node,-0.7583,51.7262,,Little Hampden,,,,
,node,-0.4114,53.07,,Bloxholm,,,,
,node,-4.3213,55.8019,,Thornliebank,,,,
,node,-4.2525,51.6169,,Llanmadoc and Cheriton,,,,
,node,-1.92,52.75,,Ravenhill,,,,
,node,-2.6406,53.2197,,Oakmere,,,,
,node,-3.3554,56.0377,,Dalgety Bay,,,,
,node,-1.4755,51.7073,,Shifford and Chimney,,,,
,node,-5.8294,57.0065,,Mallaig,,,,
,node,-1.37,52.54,,Bosworth,,,,
,node,-3.9843,55.6959,,Stonehouse,,,,
,node,1.4179,52.6577,,Little Plumstead,,,,
,node,-3.0216,56.1854,,Methil and Wemyss Villages,,,,
,node,-3.3457,51.4586,,Bonvilston,,,,
,node,1.0898,52.0377,,Washbrook,,,,
,node,-1.6255,54.526,,Merrybent,,,,
,node,0.2227,51.4219,,Hawley,,,,
,node,-4.4961,55.7647,,Uplawmoor and Newton Mearns,,,,
,node,-3.006133,52.247407,,Nash and Little Brampton,,,,
,node,-1.5086,53.7412,,Robin Hood,,,,
,node,-1.5822,54.1101,,Fountains,,,,
,node,1.42664,52.389778,,South Elmham,,,,
,node,-3.7958,51.232,,Countisbury,,,,
,node,-0.5063,52.9604,,Kelby,,,,
,node,-2.89,53.36,,Halewood,,,,
,node,0.0669,52.0141,,Little Chishill,,,,
,node,-1.1723,53.5336,,Cusworth,,,,
,node,1.2708,52.4641,,Hardwick,,,,
,node,-1.6055,51.804,,Widford,,,,
,node,-0.3154,52.4803,,Caldecote,,,,
,node,-1.26,51.83,,Poyle,,,,
,node,-2.84,56.48,,Sidlaw,,,,
,node,0.5094,52.3624,,Holywell Row and Kenny Hill,,,,
,node,-0.8944,52.6444,,Halstead,,,,
,node,1.4167,51.3667,,St. Peters,,,,
,node,-2.7578,53.2156,,Horton-cum-Peel,,,,
,node,-5.1933,51.7492,,St. Brides,,,,
,node,-4.6309,55.7499,,Beith,,,,
,node,-4.1709,57.8324,,Edderton,,,,
,node,-3.255,56.1428,,Cardenden,,,,
,node,-3.8291,51.2299,,Lynmouth,,,,
,node,-1.8307,54.6033,,Shotton,,,,
,node,-2.161,53.4418,,Reddish,,,,
,node,1.1698,52.5244,,Fundenhall,,,,
,node,-0.4736,53.055,,Brauncewell and Byard's Leap,,,,
,node,-1.2237,53.3479,,South Anston,,,,
,node,-1.4616,52.1084,,Upton,,,,
,node,-1.9346,50.767,,Bearwood,,,,
,node,-1.8072,52.9669,,Roston,,,,
,node,-4.3667,57.4,,Loch Ness,,,,
,node,-1.6511,52.3494,,Honiley and Wroxall,,,,
,node,-4.0418,50.3041,,Noss,,,,
,node,-2.3333,52.7333,,Woodcote,,,,
,node,-2.9341,53.1238,,Pulford,,,,
,node,-2.38,57.28,,District,,,,
,node,-1.75,54.09,,Low Bishopside,,,,
,node,0.83,51.3,,Buckland and Stone,,,,
,node,-3.7081,51.704,,Melincourt,,,,
,node,-4.11,51.03,,Lovacott and Newton Tracey,,,,
,node,-2.08,52.85,,Enson,,,,
,node,-3.0281,52.1169,,Winforton,,,,
,node,-0.3898,52.8021,,Hanthorpe,,,,
,node,-2.35,53.39,,Sale,,,,
,node,-2.6557,55.9861,,East Linton,,,,
,node,-3.36,51.64,,Coed-y-Cwm,,,,
,node,-0.8085,51.7554,,Little Kimble cum Marsh,,,,
,node,-0.4161,52.7313,,Manthorpe,,,,
,node,0.7342,52.7752,,Weasenham St. Peter,,,,
,node,-2.897,52.347,,Walford,,,,
,node,-0.520481,54.400788,,Fylingdales,,,,
,node,-3.2273,54.7019,,Bewaldeth,,,,
,node,1.3008,52.1822,,Hoo,,,,
,node,-3.0949,54.2859,,Blawith,,,,
,node,1.0639,52.135,,Darmsden,,,,
,node,-3.7199,50.2714,,Frogmore,,,,
,node,-0.834346,52.042715,,Fairfields,,,,
,node,-2.6086,52.1765,,Pencombe with Grendon Warren,,,,
,node,-0.8535,52.6632,,Owston,,,,
,node,-2.9095,52.9974,,Bangor is-y-Coed,,,,
,node,-3.138374,51.55321,,Pontprennau,,,,
,node,-1.9869,53.1268,,Tittesworth,,,,
,node,-2.6344,51.9454,,Sellack,,,,
,node,-1.1722,51.1655,,Candovers,,,,
,node,-1.606133,54.538748,,Brinkburn,,,,
,node,-1.6767,51.9592,,Evenlode,,,,
,node,-4.5458,51.9827,,Clydau,,,,
,node,0.3241,51.9136,,Tilty,,,,
,node,-1.0651,52.2102,,Stowe IX Churches,,,,
,node,-2.4824,51.2203,,Stoke St. Michael,,,,
,node,0.7632,52.5051,,Sturston,,,,
,node,-2.0342,54.0366,,Cracoe,,,,
,node,-4.6562,50.372,,St. Sampson,,,,
,node,-3.5306,50.5247,,Stokeinteignhead,,,,
,node,-3.123867,51.379376,,Butetown,,,,
,node,-3.1854,54.7396,,Ireby,,,,
,node,-3.4132,50.7476,,Cranbrook,,,,
,node,-3.0035,52.2474,,Rodd,,,,
,node,1.4454,52.3258,,Cookley,,,,
,node,-1.9509,51.9249,,Sudeley,,,,
,node,0.3578,51.2485,,West Peckham,,,,
,node,-1.766,54.686,,Witton-le-Wear,,,,
,node,-2.4354,50.9169,,Bishop's Caundle,,,,
,node,-0.4142,52.2756,,Pertenhall,,,,
,node,-5.4763,50.119,,St. Michael's Mount,,,,
,node,-2.8785,52.773,,Little Ness,,,,
,node,-0.745,53.6393,,Luddington,,,,
,node,-3.0213,52.1165,,Willersley,,,,
,node,-3.909565,51.693424,,Morriston,,,,
,node,-1.2041,51.0881,,Itchen Stoke,,,,
,node,0.691,52.1063,,Stanstead,,,,
,node,-3.874315,51.65795,,Llansamlet,,,,
,node,-3.128859,51.467731,,Splott,,,,
,node,-1.810938,51.587172,,Haydon Wick,,,,
,node,-1.8791,51.7897,,Coln St. Dennis,,,,
,node,-1.8808,54.3711,,Ellerton Abbey,,,,
,node,-2.3429,53.8643,,Mearley,,,,
,node,-2.4653,51.9327,,Gorsley,,,,
,node,0.8815,52.437,,Bridgham,,,,
,node,-3.964594,51.603969,,Uplands,,,,
,node,-0.9054,52.0155,,Thornton,,,,
,node,-1.7533,51.9744,,Sezincote,,,,
,node,1.242047,52.943345,,North Norfolk,,,,
,node,-1.3702,54.363,,Winton,,,,
,node,-1.7673,53.1019,,Eaton,,,,
,node,-1.1345,51.8074,,Horton-cum-Studley,,,,
,node,-1.505689,53.389281,,Walkley,,,,
,node,-1.3632,54.058,,Marton cum Grafton,,,,
,node,-0.778,54.3494,,Stape,,,,
,node,-2.0691,50.9854,,Berwick St. John,,,,
,node,-2.523,52.0331,,Putley,,,,
,node,-4.046701,51.620798,,Dunvant,,,,
,node,1.4079,52.3763,,St. James,,,,
,node,-1.2188,53.3874,,Laughton-en-le-Morthen,,,,
,node,-1.2873,54.1806,,Hutton-Sessay,,,,
,node,-0.7952,52.5956,,Allexton,,,,
,node,-1.599651,50.979585,,Melchet Park,,,,
,node,1.4347,52.1917,,Stratford St. Andrew,,,,
,node,-0.7201,52.7352,,Teigh,,,,
,node,-2.0198,50.9162,,Gussage St. Michael,,,,
,node,1.336716,52.625084,,Thorpe St. Andrew (DET),,,,
,node,-0.9618,52.6071,,Frisby,,,,
,node,1.6585,52.5168,,Somerleyton,,,,
,node,-2.1706,54.5869,,Lunedale,,,,
,node,-6.3528,49.9533,,Bryher,,,,
,node,-2.6098,54.0591,,Roeburndale,,,,
,node,-2.3875,54.9014,,Plenmeller with Whitfield,,,,
,node,-1.6757,54.1251,,Skelding,,,,
,node,-1.710883,54.746818,,Brancepeth and Brandon,,,,
,node,-2.6405,52.2111,,Docklow,,,,
,node,0.0085,52.6978,,Sutton St. Edmund,,,,
,node,-4.5233,52.8966,,Buan,,,,
,node,-2.8074,53.1006,,Aldersey,,,,
,node,-3.307702,51.503631,,St. Fagans,,,,
,node,-2.6237,52.4268,,Stoke St. Milborough,,,,
,node,-1.18222,54.532394,,Nunthorpe,,,,
,node,-1.1025,51.1521,,Wield,,,,
,node,0.1325,52.7405,,Tydd St. Mary,,,,
,node,-0.9074,54.1195,,Henderskelfe,,,,
,node,-2.6981,51.9185,,Tretire with Michaelchurch,,,,
,node,-2.941665,52.001673,,St. Margarets,,,,
,node,-1.174249,53.643126,,Stubbs Walden,,,,
,node,-1.1581,54.2664,,Old Byland,,,,
,node,0.0157,53.4289,,Covenham St. Mary,,,,
,node,-3.4119,54.8124,,Holme St. Cuthbert,,,,
,node,-0.8487,54.205,,Barugh (Great,,,,
,node,1.2003,52.0965,,Tuddenham St. Martin,,,,
,node,-2.4856,52.5429,,Morville,,,,
,node,-2.7484,51.9067,,St. Weonards,,,,
,node,-1.952809,54.763351,,Stanhope,,,,
,node,-0.617969,51.334017,,Bisley (DET),,,,
,node,-1.0135,51.1429,,Beech,,,,
,node,-0.9559,54.2517,,Welburn,,,,
,node,0.6048,52.0567,,Belchamp St. Paul,,,,
,node,-5.6607,50.0422,,St. Levan,,,,
,node,0.747248,51.860253,,Marks Tey (DET),,,,
,node,-0.0863,53.3682,,Welton Le Wold,,,,
,node,-2.6559,51.0852,,Barton St. David,,,,
,node,-0.3912,53.2749,,Newball,,,,
,node,-1.2686,52.2544,,Upper,,,,
,node,-1.9074,51.1586,,Berwick St. James,,,,
,node,-1.307,53.986,,Thornville,,,,
,node,-1.7757,53.0277,,Okeover,,,,
,node,-5.0738,50.3184,,St. Allen,,,,
,node,-0.8772,53.2868,,Headon cum Upton,,,,
,node,-4.2584,50.6141,,Kelly,,,,
,node,0.9914,51.9928,,Holton St. Mary,,,,
,node,0.0998,52.6858,,Gorefield,,,,
,node,-1.1224,54.4842,,Little Ayton,,,,
,node,-1.8917,54.6059,,Langleydale,,,,
,node,-1.8931,54.6334,,Woodland,,,,
,node,-1.7287,54.5052,,Forcett,,,,
,node,-4.1824,50.9782,,Weare Giffard,,,,
,node,-1.0064,54.4286,,Westerdale,,,,
,node,1.1739,51.1459,,Swingfield,,,,
,node,-3.3803,50.7916,,Clyst St. Lawrence,,,,
,node,-2.822,53.8369,,Inskip-with-Sowerby,,,,
,node,-1.1887,53.2295,,Nether Langwith,,,,
,node,-2.812,53.0228,,Chorlton,,,,
,node,-0.7792,51.7062,,Great Hampden,,,,
,node,-4.209043,50.362134,,Millbrook (DET),,,,
,node,-1.4619,54.2719,,Maunby,,,,
,node,1.255,51.2634,,Staple,,,,
,node,-1.4713,54.2487,,Pickhill with Roxby,,,,
,node,-1.361,54.1294,,Thornton Bridge,,,,
,node,-1.6413,53.1214,,Ivonbrook Grange,,,,
,node,-2.7128,51.9772,,Little Birch,,,,
,node,-3.197783,51.422524,,Penarth,,,,
,node,-1.6007,53.1785,,Northwood,,,,
,node,0.450033,51.756088,,Chelmsford,,,,
,node,-2.1115,51.014,,Donhead St. Andrew,,,,
,node,-3.901672,51.611344,,St. Thomas,,,,
,node,0.49847,52.958215,,Old Hunstanton (DET),,,,
,node,-3.7809,50.8278,,Down St. Mary,,,,
,node,-0.3894,52.86,,Aslackby,,,,
,node,-3.6464,51.9576,,Llywel,,,,
,node,1.5936,52.415,,Willingham St. Mary,,,,
,node,0.8049,52.1967,,Bradfield St. George,,,,
,node,-1.6668,52.2669,,Norton Lindsey,,,,
,node,-0.4269,53.0412,,Roxholm,,,,
,node,0.2162,53.1234,,Thorpe St. Peter,,,,
,node,-2.1404,50.9981,,Donhead St. Mary,,,,
,node,-2.9239,52.2352,,Staunton on Arrow,,,,
,node,-3.237075,51.552524,,Tongwynlais,,,,
,node,-2.2096,51.9749,,Chaceley,,,,
,node,-2.3643,51.2422,,Great Elm,,,,
,node,-1.966551,52.151311,,South Lenches,,,,
,node,-1.3626,54.1508,,Cundall with Leckby,,,,
,node,-3.018898,50.774819,,Axminster,,,,
,node,-2.714,52.1938,,Ford,,,,
,node,-3.3555,52.811,,Pen-y-bont-Fawr,,,,
,node,-3.089459,51.510132,,Trowbridge,,,,
,node,0.2921,51.7699,,Abbess Beauchamp,,,,
,node,-0.474,52.8585,,Lenton Keisby,,,,
,node,-0.1997,52.0297,,Caldecote,,,,
,node,-3.220073,51.551762,,Rhiwbina,,,,
,node,-2.7298,52.1811,,Newton,,,,
,node,-1.8727,53.1254,,Warslow,,,,
,node,-2.9222,51.9242,,Llancillo,,,,
,node,-1.4428,52.1238,,Ratley,,,,
,node,-4.0872,53.2931,,Llangoed,,,,
,node,-2.6347,52.4549,,Clee St. Margaret,,,,
,node,-1.7048,54.5043,,Stanwick St. John,,,,
,node,-2.4822,52.0268,,Little Marcle,,,,
,node,-1.8607,51.3649,,Stanton St. Bernard,,,,
,node,1.5399,52.4041,,Redisham,,,,
,node,-2.6891,52.5935,,Ruckley,,,,
,node,-5.1069,50.0806,,St. Anthony-in-Meneage,,,,
,node,-2.1397,51.6867,,Cherington,,,,
,node,-1.8792,51.3194,,Marden,,,,
,node,1.4253,52.5899,,Rockland St. Mary,,,,
,node,-0.47,52.45,,Lilford-cum-Wigsthorpe,,,,
,node,-0.9373,52.9236,,Wiverton Hall,,,,
,node,-0.4826,51.2568,,East Clandon,,,,
,node,-1.3655,51.9908,,Barford St. John,,,,
,node,-1.5435,54.1006,,Markenfield Hall,,,,
,node,-0.5152,54.3155,,Silpho,,,,
,node,-2.6089,54.1027,,Wray-with-Botton,,,,
,node,-2.941899,53.204999,,Saughall,,,,
,node,1.3132,52.1927,,Kettleburgh,,,,
,node,-2.9061,52.3553,,Buckton,,,,
,node,-2.1865,50.9647,,Compton Abbas,,,,
,node,-2.767098,52.333802,,Richards Castle (Hereford),,,,
